name,Location,Latitude,Longitude,link
Hayabusa Halal Market Tokyo Akihabara,"17 2-chome Kanda Sudacho, Chiyoda City, Tokyo, 101-0041 Japan",35.696255,139.773581,https://www.halal-navi.com/place/hayabusa-halal-market-tokyo-akihabara/625677qx
PAK Food Center,"15-1-103 Kitamachi, Isesaki-shi, Gunma-ken, 372-0056 Japan",36.328679,139.196153,https://www.halal-navi.com/place/pak-food-center/62x6zqx3
Nasco Halal Food,"2-10-8-101 Hyakunin-cho, Shinjuku-ku, Tōkyō-to, 169-0073 Japan",35.70202,139.699739,https://www.halal-navi.com/place/nasco-halal-food/76y5wpxn
Azhar Halal Foods Japan,"3-36-31-107 Hakozaki, Higashi-ku, Fukuoka-shi, Fukuoka-ken, 812-0053 Japan",33.6225,130.42096,https://www.halal-navi.com/place/azhar-halal-foods-japan/4w3xy459
Laox Shinjuku Open Muslim Friendly Products,"Kyodo Bldg. 5-8F, 3-chome 1-20 Shinjuku, Shinjuku-ku, Tōkyō-to, 160-0022 Japan",35.690575,139.704927,https://www.halal-navi.com/place/laox-shinjuku-open-muslim-friendly-products/w675q353
Nihon International Ltd Halal Shop,"3 Chome−6-14 Sekibara, 足立区, Adachi-ku, Tōkyō-to, 123-0852 Japan",35.767654,139.789493,https://www.halal-navi.com/place/nihon-international-ltd-halal-shop/p79x7n5y
A-Price Beppu,"3-7 Chūōmachi, Beppu-shi, Ōita-ken, 874-0936 Japan",33.276649,131.500737,https://www.halal-navi.com/place/a-price-beppu/w4q5n85p
Baharu,"2-19-4 Nishi-Shinbashi, K-1 building 6F, Minato-ku, Tōkyō-to, 105-0003 Japan",35.666042,139.751788,https://www.halal-navi.com/place/baharu/9qpx2q5y
Nissin World Delicatessen,"2-34-2, Higashi-Azabu, Minato-ku, Tōkyō-to, 106-0044 Japan",35.655656,139.739228,https://www.halal-navi.com/place/nissin-world-delicatessen/z6nx9z5r
Majumder International Online Shopping,"11-23, Shiheicho, Aoba-Ku, Sendai-shi, Miyagi-ken, 981-0944 Japan",38.275722,140.850413,https://www.halal-navi.com/place/majumder-international-online-shopping/4yvxz2x8
Halal Food,"4−14, 井藤ビル, Hiroshima-shi, Hiroshima-ken, 732-0807 Japan",34.3944275,132.476324219,https://www.halal-navi.com/place/halal-food/28r5r65z
Azaan Halal Food,"3 Chome−18−15, ケイ・エムビル, Minamidai, minami-ku, Sagamihara-shi, Kanagawa-ken, 252-0314 Japan",35.516017,139.422984,https://www.halal-navi.com/place/azaan-halal-food/69zx8px7
Yusha Restaurant & Halal Food Shop,"Wakakusacho 9－26 (Next to Nissan Motor Beppu grass shop), Beppu-shi, Ōita-ken, 874-0925 Japan",33.290142,131.503385,https://www.halal-navi.com/place/yusha-restaurant-halal-food-shop/r765p454
Al-Flah Supermarket,"Ohnoya Building 4F, 2-41-2 Ikebukuro, Toshima-ku, Tōkyō-to, 170-0014 Japan",35.733167,139.709579,https://www.halal-navi.com/place/al-flah-supermarket/4qvx4w5r
Nasco Halal Food,"Hyakunin-cho 2-9-3-104, Shinjuku-ku, Tōkyō-to, 169-0073 Japan",35.702145,139.699402,https://www.halal-navi.com/place/nasco-halal-food/w6256qx3
Sale Bazaar,"2-24-24, 1F, Chūōhonchō, Adachi-ku, Tōkyō-to, 120-0011 Japan",35.767617,139.808933,https://www.halal-navi.com/place/sale-bazaar/n8r53zxv
Sonali Halal Food,"1-13-5-101, Kamijujo, Kita-ku, Kita-ku, Tōkyō-to, 114-0034 Japan",35.761373,139.722545,https://www.halal-navi.com/place/sonali-halal-food/n85v7nxp
Baticrom,"2-16-11 Akabaneminami, Kita-ku, Tōkyō-to, 115-0044 Japan",35.775358,139.725947,https://www.halal-navi.com/place/baticrom/4qxn88xp
Oishii Halal Food,"Yoshioka Building 3F, 4-32-1 Yotsuya, Shinjuku-ku, Tōkyō-to, 160-0004 Japan",35.689461,139.714869,https://www.halal-navi.com/place/oishii-halal-food/qp527qxy
Padma Co.,"8-30-4 Waseda, Misato-shi, Saitama-ken, 341-0018 Japan",35.860658,139.885972,https://www.halal-navi.com/place/padma-co/6n59vzxr
Darvish Shop,"Ueno Bldg. 1F, 18-4 Nihonbashi-Kodenmacho, Chūō-ku, Tōkyō-to, 103-0001 Japan",35.692516,139.779136,https://www.halal-navi.com/place/darvish-shop/8r53yz5v
Asian Bazaar,"2-9-3 Higashi-Oi, Shinagawa-ku, Tōkyō-to, 140-0011 Japan",35.601892,139.741535,https://www.halal-navi.com/place/asian-bazaar/6n59zzxr
Maya Bazaar,"Nakajima Bldg. 203, 3-10-1 Kamioosaki, Shinagawa-ku, Tōkyō-to, 141-0021 Japan",35.633317,139.717732,https://www.halal-navi.com/place/maya-bazaar/8rxry65z
Rose Family Shinokubo,"Initial Annex Bldg. 2F 203, 2-10-8 Hyakunincho, Shinjuku-ku, Tōkyō-to, 169-0073 Japan",35.701947,139.699654,https://www.halal-navi.com/place/rose-family-shinokubo/62x6nqx3
Ambika Shop,"Ambika House, 3-19-2 Kuramae, Taitō-ku, Tōkyō-to, 111-0051 Japan",35.705405,139.791243,https://www.halal-navi.com/place/ambika-shop/8rx3nz5v
Samurai Kitchen,"5-2-13 Asakusa, Taitō-ku, Tōkyō-to, 111-0032 Japan",35.719175,139.798969,https://www.halal-navi.com/place/samurai-kitchen/6nx9nz5r
Toko Fatimah Ameyoko,"4-1-8 Ueno, Taitō-ku, Tōkyō-to, 111-0056 Japan",35.7061,139.78383,https://www.halal-navi.com/place/toko-fatimah-ameyoko/yvxz22x8
Tehran Shop,"1-38-15 Hiranuma, Nishi, Yokohama-shi, Kanagawa-ken, 220-0023 Japan",35.461683,139.619928,https://www.halal-navi.com/place/tehran-shop/8r539z5v
Kobe Halal Food,"2-7-13 Nakayamatedōri, Kōbe-shi, Hyōgo-ken, 650-0004 Japan",34.696309,135.189029,https://www.halal-navi.com/place/kobe-halal-food/9z587px7
Hira Halal Foods,"3 Chome-6-1 Gyōtoku Ekimae, Ichikawa-shi, Chiba-ken, 272-0133 Japan",35.680906,139.919006,https://www.halal-navi.com/place/hira-halal-foods/qv549wxr
Madina Halal Restaurant & Foods,"Imaike-cho 1-11-13, Sanken Build 1F, Anjō-shi, Aichi-ken, 446-0071 Japan",34.985205,137.084801,https://www.halal-navi.com/place/madina-halal-restaurant-foods/62x67q53
Taibat Halal Food,"510-11 Dairakuji-cho, Hachiōji-shi, Tōkyō-to, 193-0816 Japan",35.671805,139.297214,https://www.halal-navi.com/place/taibat-halal-food/yv5zq2x8
Laox Akihabara Honten,"1-2-9 Sotokanda, Chiyoda-ku, Tōkyō-to, 101-0021 Japan",35.698156,139.770923,https://www.halal-navi.com/place/laox-akihabara-honten/8rxr365z
Toa Food,"759-3, Mikuninocho Fukashino, Himeji-shi, Hyōgo-ken, 671-0231 Japan",34.826383,134.74624,https://www.halal-navi.com/place/toa-food/9z58ypx7
Watan Sapporo Halal Food,"3-1-20 Matsuda Building, Kita 19 Jonishi,Kita-ku, Sapporo-shi, Hokkaidō, 001-0019 Japan",43.083239,141.346505,https://www.halal-navi.com/place/watan-sapporo-halal-food/76xpr4x4
S and S International,"Tono Ike Bldg., 2F, 1-24-17, Eki Higashidori, Oyama-shi, Tochigi-ken, 323-0022 Japan",36.309157,139.809977,https://www.halal-navi.com/place/s-and-s-international/qv547wxr
Muslim Halal Food Shop (Mehoob Hussain),"2-13-13, Nishihara, Asaka-shi, Saitama-ken, 351-0034 Japan",35.818888,139.585419,https://www.halal-navi.com/place/muslim-halal-food-shop-mehoob-hussain/w35yv4x9
Asia Halal Food,"Okumura Bldg., No. 202, 1-33-21, Nishi Kawaguchi, Kawaguchi-shi, Saitama-ken, 332-0021 Japan",35.814061,139.701264,https://www.halal-navi.com/place/asia-halal-food/67xq93x3
Jazmak Halal Shop,"17-8, Hiyoshi-cho, Tokorozawa-shi, Saitama-ken, 359-1123 Japan",35.787758,139.470017,https://www.halal-navi.com/place/jazmak-halal-shop/7957vnxy
Salimar Sweets & Food,"Shali Bldg., 3-30-13, Naka-Kasai, Edogawa-ku, Tōkyō-to, 134-0083 Japan",35.665776,139.872174,https://www.halal-navi.com/place/salimar-sweets-food/n8xvwn5p
Friends Halal Food,"Primera Dogenzaka 913, 1-15-3, Dogenzaka, Shibuya-ku, Tōkyō-to, 150-0043 Japan",35.657344,139.697712,https://www.halal-navi.com/place/friends-halal-food/6nx96z5r
The Jannat Halal Food,"Twin Village Shinjuku 102, 2-9-1, Hyakunincho, Shinjuku-ku, Tōkyō-to, 169-0073 Japan",35.702338,139.699655,https://www.halal-navi.com/place/the-jannat-halal-food/8r5rr65z
Ohtsuya Shouten,"4-6-1, Ueno, Taitō-ku, Tōkyō-to, 110-0005 Japan",35.708513,139.774682,https://www.halal-navi.com/place/ohtsuya-shouten/765p6454
AGM Trading,"1-1-16, Tsunashima Nishi, Kohoku-ku, Yokohama-shi, Yokohama-shi, Kanagawa-ken, 223-0053 Japan",35.537106,139.634787,https://www.halal-navi.com/place/agm-trading/qvx4zwxr
Syed Bros. Halal Food,"Room 805, Tokan Mansion Kanayama,1-15-14, Kanayama, Naka-ku, Nagoya-shi, Aichi-ken, 456-0002 Japan",35.142675,136.901715,https://www.halal-navi.com/place/syed-bros-halal-food/6y5wyp5n
Sunshine Halal Mart,"1 Chome-13-12 Higashi-ikebukuro, Toshima-ku, Tōkyō-to, 170-0013 Japan",35.729328,139.715298,https://www.halal-navi.com/place/sunshine-halal-mart/79x7rn5y
Jasmine Mini Market,"2-2-14-101 Motoazabu, Minato-ku, Tōkyō-to, 106-0046 Japan",35.654562,139.726318,https://www.halal-navi.com/place/jasmine-mini-market/n85vynxp
Indo Bazaar,"5-20-6 Kamata, Ōta-ku, Tōkyō-to, 144-0052 Japan",35.561713,139.718662,https://www.halal-navi.com/place/indo-bazaar/qp52vq5y
Couscous,"3-24-7 Higashi-Shinagawa, Shinagawa-ku, Tōkyō-to, 140-0002 Japan",35.612523,139.745687,https://www.halal-navi.com/place/couscous/yv5zp258
Asia Superstore,"Chaleur-Shinjuku Bldg. 2F, 1-8-2 Okubo, Shinjuku-ku, Tōkyō-to, 169-0072 Japan",35.698529,139.704917,https://www.halal-navi.com/place/asia-superstore/9z588p57
Barahi Foods & Spice Center,"2-10-9 101 Hyakunincho, Shinjuku-ku, Tōkyō-to, 169-0073 Japan",35.70191,139.699703,https://www.halal-navi.com/place/barahi-foods-spice-center/76xp24x4
JB Halal Food,"1-10-4 Hiyakunin-Cho, Shinjuku-ku, Tōkyō-to, 169-0073 Japan",35.699921,139.699801,https://www.halal-navi.com/place/jb-halal-food/qv542w5r
Rose Family Takadanobaba,"Domus Sani Yanagawa Bldg. 2F 202, 3-2-13 Takadanobaba, Shinjuku-ku, Tōkyō-to, 169-0075 Japan",35.714391,139.703285,https://www.halal-navi.com/place/rose-family-takadanobaba/6yxw6p5n
Shinjuku Halal Food,"Okayama Business Bldg. 201, 2-9-2 Hyakunin-cho, Shinjuku-ku, Tōkyō-to, 169-0073 Japan",35.702159,139.699545,https://www.halal-navi.com/place/shinjuku-halal-food/w35yy459
Solti,"Lions Mantion 2F, 2-9-15 Hyakonincho, Shinjuku-ku, Tōkyō-to, 169-0073 Japan",35.702059,139.700146,https://www.halal-navi.com/place/solti/67xqy3x3
Toko Indonesia,"Jikei Bldg. IF, 1-19-18 Hyakunincho, Shinjuku-ku, Tōkyō-to, 169-0073 Japan",35.701393,139.696338,https://www.halal-navi.com/place/toko-indonesia/79572nxy
Raja Halal Food,"143 Furukori,  Ōizumi-machi, Ōra-gun, Gunma-ken, 370-0536 Japan",36.261759,139.394833,https://www.halal-navi.com/place/raja-halal-food/6yxwwpxn
TAJ Enterprise Ltd.,"7-4-2, Hanahata, Adachi-ku, Tōkyō-to, 121-0061 Japan",35.808993,139.816685,https://www.halal-navi.com/place/taj-enterprise-ltd/8rx37zxv
Nozawaya,"Ameyoko Center Bldg. B1, 4-7-8 Ueno, Taitō-ku, Tōkyō-to, 110-0005 Japan",35.709607,139.774526,https://www.halal-navi.com/place/nozawaya/qpx23q5y
Halal Food in Japan,"2-39-9 Nishiikebukuro, Toshima-ku, Tōkyō-to, 171-0021 Japan",35.727701,139.707967,https://www.halal-navi.com/place/halal-food-in-japan/79x78n5y
Zaika,"1-12-2, Higashi-Rokugo, Ōta-ku, Tōkyō-to, 144-0046 Japan",35.553489,139.719087,https://www.halal-navi.com/place/zaika/4q5n98xp
Iran Shop,"Flat Bldg., 5F, 1-24-7, Shibuya, Shibuya-ku, Tōkyō-to, 150-0002 Japan",35.660591,139.701992,https://www.halal-navi.com/place/iran-shop/qpx2qq5y
Baharia,"2F, Hokuto Honsha bldg., Yoyogi 2-14-3, Shibuya-ku, Tōkyō-to, 151-0053 Japan",35.686867,139.696758,https://www.halal-navi.com/place/baharia/yvxzr2x8
Al-Amin Halal Foods,"1-42-8, Yahiro, Sumida-ku, Tōkyō-to, 131-0041 Japan",35.721977,139.825732,https://www.halal-navi.com/place/al-amin-halal-foods/9zx89p57
City Halal Food,"1-58, Hosokome-cho, Nakagawa-ku, Nagoya-shi, Aichi-ken, 454-0847 Japan",35.1362,136.863858,https://www.halal-navi.com/place/city-halal-food/6256rq53
Soyo Trading,"2-2-1, Minatojima Nakamachi, Chuo-ku, Kōbe-shi, Hyōgo-ken, 650-0046 Japan",34.672204,135.214704,https://www.halal-navi.com/place/soyo-trading/w3xy34x9
Halal Kitano Store,"Flower Bldg. 1F, 3-3-3, Yamamoto-dori, Chuo-ku, Kōbe-shi, Hyōgo-ken, 650-0003 Japan",34.69641,135.18784,https://www.halal-navi.com/place/halal-kitano-store/675q7353
A. A. G. Halal Food Shop,"5-4-6 Kashiwanoha, Kashiwa-shi, Chiba-ken, 277-0882 Japan",35.903477,139.939881,https://www.halal-navi.com/place/a-a-g-halal-food-shop/6n597z5r
Halal Mart Japan,"3-1 Honchō, Kawaguchi-shi, Saitama-ken, 332-0012 Japan",35.802321,139.721545,https://www.halal-navi.com/place/halal-mart-japan/8rxr66xz
National Azabu Supermarket,"4-5-2 Minami-Azabu, Minato-ku, Tōkyō-to, 106-0047 Japan",35.651283,139.724141,https://www.halal-navi.com/place/national-azabu-supermarket/4qxnv8xp
Sariraya Halal Mart,"Kitaura-75-1 Yonezuchō, Nishio-shi, Aichi-ken, 445-0802 Japan",34.900244,137.060734,https://www.halal-navi.com/place/sariraya-halal-mart/yv5z72x8
Don Quijote Asakusa,"Asakusa Store 2F, 2-10 Asakusa, Taitō-ku, Tōkyō-to, 111-0032 Japan",35.713965,139.793075,https://www.halal-navi.com/place/don-quijote-asakusa/n8xv4nxp
Nissin Shokai,"G-Square Ueno 6F, 3-17-7 Ueno, Taitō-ku, Tōkyō-to, 110-0005 Japan",35.706208,139.772559,https://www.halal-navi.com/place/nissin-shokai/4q5np85p
Probashi Halal Food,"Ikebukuro Century 21-201, 1-5-4 Nishi Ikebukuro, Toshima-ku, Tōkyō-to, 171-0021 Japan",35.727881,139.708416,https://www.halal-navi.com/place/probashi-halal-food/8r5rp65z
Probashi Halal Food,"3-42-3 Minamichō, Maebashi-shi, Gunma-ken, 371-0805 Japan",36.3811,139.070857,https://www.halal-navi.com/place/probashi-halal-food/9zx83p57
Probashi Halal Food,"2-26-7 Kume, Naha-shi, Okinawa-ken, 900-0033 Japan",26.217397,127.674779,https://www.halal-navi.com/place/probashi-halal-food/765p74x4
Holy Halal Food,"1-43-6 Katsushika-ku, Katsushika-ku, Tōkyō-to, 124-0024 Japan",35.716298,139.85857,https://www.halal-navi.com/place/holy-halal-food/qvx43w5r
Asia Halal Food,"1-4-3 Jūjōnakahara, 北区, Kita-ku, Tōkyō-to, 114-0031 Japan",35.762562,139.721762,https://www.halal-navi.com/place/asia-halal-food/62568q53
Halal Food Shop,"2F, 2-9-3 Hyakuninchō, Shinjuku-ku, Tōkyō-to, 169-0073 Japan",35.702039,139.699449,https://www.halal-navi.com/place/halal-food-shop/6y5wqp5n
Dhaka Halal Food,"4-8 Higashijūjō, Kita-ku, Tōkyō-to, 114-0001 Japan",35.767461,139.729284,https://www.halal-navi.com/place/dhaka-halal-food/w3xyn459
Pakistan Halal Shop Shonandai,"1−25-17 Shonandai, Fujisawa-shi, Kanagawa-ken, 252-0804 Japan",35.393999,139.468756,https://www.halal-navi.com/place/pakistan-halal-shop-shonandai/675q83x3
Halal Hut Sobudai,"Ishikawa Bldg 1F,  1-26-6, Sōbudai, Minami-ku, Sagamihara-shi, Kanagawa-ken, 252-0324 Japan",35.499635,139.406499,https://www.halal-navi.com/place/halal-hut-sobudai/n85v6n5p
Halal Hut Atsugi,"Eiko Atsugi Vila 104 3-15-14 Asahi, 3 Chome-15 Midorigaoka, Atsugi-shi, Kanagawa-ken, 243-0014 Japan",35.435806,139.368407,https://www.halal-navi.com/place/halal-hut-atsugi/4qxnn8xp
Al Noor Otaru Halal Grocery Shop,"21-21 Nishikimachi, Otaru-shi, Hokkaidō, 047-0039 Japan",43.209546,140.997551,https://www.halal-navi.com/place/al-noor-otaru-halal-grocery-shop/76xp9454
Zafar Halal Food Store,"7 Namiyosecho, Atsuta Ward,, Nagoya-shi, Aichi-ken, 456-0003 Japan",35.140866,136.906102,https://www.halal-navi.com/place/zafar-halal-food-store/qp52nq5y
SUNSHINE HALAL MART,"Sunshine60 Street, Toshima-ku, Tōkyō-to, 170-0013 Japan",35.7293254,139.715299,https://www.halal-navi.com/place/sunshine-halal-mart/6nx9ny95
業務スーパー与野店,"〒338-0006 Saitama-ken, Saitama-shi, Saitama-shi, Saitama-ken, 338-0006 Japan",35.881575,139.608118,https://www.halal-navi.com/place/業務スーパー与野店/yvxz238x
SMCA halal food,"560-8, Saitama-shi, Saitama-ken, 338-0826 Japan",35.867982,139.60819,https://www.halal-navi.com/place/smca-halal-food/8r5rpvq5
Asia Halal Food,"Japan, Kita-ku, Tōkyō-to, 114-0031 Japan",35.762563,139.721763,https://www.halal-navi.com/place/asia-halal-food/9zx83qy5
A-プライス 府中店,"西原町1-9-1, Fuchū-shi, Tōkyō-to, 183-0046 Japan",35.6832180005,139.459472982,https://www.halal-navi.com/place/a-プライス-府中店/8r539qq5
Laox Kyoto Mauri Store,"Japan, 〒600-8567 Kyōto-fu, Kyōto-shi, Kyōto-fu, 600-8567 Japan",35.003397,135.769563,https://www.halal-navi.com/place/laox-kyoto-mauri-store/4qxnpr4x
Don Quijote Namba,"Japan, 〒542-0075 Ōsaka-fu, Ōsaka-shi, Ōsaka-fu, 542-0075 Japan",34.664617,135.503032,https://www.halal-navi.com/place/don-quijote-namba/qp523wyx
Laox Daimaru,"Japan, 〒542-0085 Ōsaka-fu, Ōsaka-shi, Ōsaka-fu, 542-0085 Japan",34.66971,135.501108,https://www.halal-navi.com/place/laox-daimaru/6n59nq9x
Gyomu Tenma,"Japan, 〒530-0033 Ōsaka-fu, Ōsaka-shi, Ōsaka-fu, 530-0033 Japan",34.707544,135.51367,https://www.halal-navi.com/place/gyomu-tenma/yv5z2485
AL-FLAH SUPER MARKET,"池袋2-41-2, Toshima-ku, Tōkyō-to, 171-0021 Japan",35.7329729441,139.709788516,https://www.halal-navi.com/place/al-flah-super-market/6yxwqp7x
BUMBU YA halal Asian Grocery Store,"6 Ishishiro Otokoyama, Yawata, Kyoto, 614-8374 Japan",34.8601128177,135.69657404,https://www.halal-navi.com/place/bumbu-ya-halal-asian-grocery-store/6y5w77p5
AGM Trading Halal Food,"１６, １, Yokohama-shi, Kanagawa-ken, 223-0053 Japan",35.5370976,139.6347931,https://www.halal-navi.com/place/agm-trading-halal-food/62568p85
Okinawa Halal Food,"Okinawa Prefecture, Japan, Naha-shi, Okinawa-ken, 900-0021 Japan",26.2124013,127.6809317,https://www.halal-navi.com/place/okinawa-halal-food/675q8v6x
Al-flah super market,"Japan, 〒170-0014 Tōkyō-to, Toshima-ku, Tōkyō-to, 170-0014 Japan",35.733183,139.709668,https://www.halal-navi.com/place/al-flah-super-market/79x784w5
Kaserta International Halal Bazaar,"37, 36, Nagoya-shi, Aichi-ken, 460-0011 Japan",35.1585855,136.9028045,https://www.halal-navi.com/place/kaserta-international-halal-bazaar/8r5393q5
Minato Halal Shop,"〒455-0832 Aichi-ken, Nagoya-shi, Nagoya-shi, Aichi-ken, 455-0832 Japan",35.095873,136.852301,https://www.halal-navi.com/place/minato-halal-shop/n85v4r85
Minato Halal Food,"1 Chome-34 Hōjin, Nagoya-shi, Aichi-ken, 455-0832 Japan",35.095867,136.852302,https://www.halal-navi.com/place/minato-halal-food/4qxnp44x
Kaseria,"3 Chome-36-37 Ōsu, Nagoya-shi, Aichi-ken, 460-0011 Japan",35.158586,136.902805,https://www.halal-navi.com/place/kaseria/6n59nw9x
Toko Indonesia Okubo,"18, 19, Shinjuku-ku, Tōkyō-to, 169-0073 Japan",35.701375,139.696305,https://www.halal-navi.com/place/toko-indonesia-okubo/yv5z2685
Gyoumu Super,"３６, ４, Kōbe-shi, Hyōgo-ken, 655-0027 Japan",34.6300403,135.0540176,https://www.halal-navi.com/place/gyoumu-super/8rxrp9qx
Gyomu Super Tarumi,"３６, ４, Kōbe-shi, Hyōgo-ken, 655-0027 Japan",34.6300403,135.0540176,https://www.halal-navi.com/place/gyomu-super-tarumi/9z583ryx
KOBE GROCERS,"２, １９, Kōbe-shi, Hyōgo-ken, 650-0004 Japan",34.695957,135.1892191,https://www.halal-navi.com/place/kobe-grocers/76xp7n65
Sanda Minoya,"８８２, 志手原, Sanda-shi, Hyōgo-ken, 669-1506 Japan",34.9174552,135.2391772,https://www.halal-navi.com/place/sanda-minoya/w35ynw9x
TATSUYA,"１９, １３, Kōbe-shi, Hyōgo-ken, 650-0022 Japan",34.6896139,135.1887618,https://www.halal-navi.com/place/tatsuya/67xq8365
ASLAN KEBAB,"Taitō-ku, Tōkyō-to, 110-0005 Japan",35.7096572,139.774572,https://www.halal-navi.com/place/aslan-kebab/79578zwx
Gyomu Super Kagurazaka,"Japan, Shinjuku-ku, Tōkyō-to, 162-0806 Japan",35.704923,139.729312,https://www.halal-navi.com/place/gyomu-super-kagurazaka/8rx39vqx
Gyomu Super Ueno,"2 Chome-3-4 Ueno, Taitō-ku, Tōkyō-to, 110-0005 Japan",35.708433,139.771602,https://www.halal-navi.com/place/gyomu-super-ueno/n8xv4p8x
Costco,"26, 868, Kōbe-shi, Hyōgo-ken, 655-0001 Japan",34.6700235,135.0545562,https://www.halal-navi.com/place/costco/4q5npy45
Rogers,"1, 11, Saitama-shi, Saitama-ken, 338-0821 Japan",35.869135,139.621233,https://www.halal-navi.com/place/rogers/qpx23yy5
Don Quijote Umeda,"16, 4, Ōsaka-shi, Ōsaka-fu, 530-0018 Japan",34.7032174,135.5009133,https://www.halal-navi.com/place/don-quijote-umeda/6nx9n895
Don QuiJote Umeda,"〒530-0018 Ōsaka-fu, Ōsaka-shi, Ōsaka-shi, Ōsaka-fu, 530-0018 Japan",34.70324,135.50111,https://www.halal-navi.com/place/don-quijote-umeda/yvxz2y8x
7-Eleven Akihabara Eki Kita,"Chiyoda City, Tokyo, 101-0022 Japan",35.699597,139.774191,https://www.halal-navi.com/place/7-eleven-akihabara-eki-kita/yvxz7245
7 Eleven Edogawa Nishi Kasai 7-Chome,"Edogawa City, Tokyo, 134-0088 Japan",35.658804,139.860428,https://www.halal-navi.com/place/7-eleven-edogawa-nishi-kasai-7-chome/8r5r6p25
7Eleven Edogawa NishiKasai 4 chome,"Edogawa City, Tokyo, 134-0088 Japan",35.66754,139.862891,https://www.halal-navi.com/place/7eleven-edogawa-nishikasai-4-chome/9zx87365
Halal Tokyo by Kaliber,"1 Chome-48-13 Zōshigaya, Toshima-ku, Tōkyō-to, 171-0032 Japan",35.722118,139.722814,https://www.halal-navi.com/place/halal-tokyo-by-kaliber/9zx832y5
Shikder Halal Mart,"3-40-7, Nakano-ku, Tōkyō-to, 164-0002 Japan",35.7156952,139.6713516,https://www.halal-navi.com/place/shikder-halal-mart/62568v85
A.A.G. Enterprises,"1113-2, Takata, Kashiwa-shi, Chiba-ken, 277-0861 Japan",35.882515,139.951291,https://www.halal-navi.com/place/a-a-g-enterprises/4q5npz75
COSTCO Kobe,"２６, 868, Kōbe-shi, Hyōgo-ken, 655-0001 Japan",34.6700235,135.0545562,https://www.halal-navi.com/place/costco-kobe/qvx43yy5
7 Eleven Edogawa Seishin Plaza,"Edogawa City, Tokyo, 134-0087 Japan",35.662341,139.855664,https://www.halal-navi.com/place/7-eleven-edogawa-seishin-plaza/765p97nx
YAMAYA,"兵庫県, 名谷町, Kōbe-shi, Hyōgo-ken, 655-0852 Japan",34.6514971,135.0685144,https://www.halal-navi.com/place/yamaya/62568vw5
Everest Halsl,"3, 2 Chome, Maebashi-shi, Gunma-ken, 371-0016 Japan",36.3932283,139.0732491,https://www.halal-navi.com/place/everest-halsl/6y5wqv25
Bombay Bazaar,"6 Chome-12-12 Ōjima, Kōtō-ku, Tōkyō-to, 136-0072 Japan",35.690533,139.836285,https://www.halal-navi.com/place/bombay-bazaar/w3xynzv5
7-Eleven (セブンイレブン 大阪夢洲店),"此花区夢洲東1-2-18, Ōsaka-shi, Ōsaka-fu, 554-0043 Japan",34.6526434568,135.394611705,https://www.halal-navi.com/place/7-eleven-セブンイレブン-大阪夢洲店/675q827x
7 Eleven Naka Kasai 3-chome,"Edogawa City, Tokyo, 134-0083 Japan",35.665955,139.872488,https://www.halal-navi.com/place/7-eleven-naka-kasai-3-chome/qvx493y5
"Rogers Mart, Asakusa Branch","Taito City, Tokyo, 111-0032 Japan",35.712082,139.794489,https://www.halal-navi.com/place/rogers-mart-asakusa-branch/4q5nnn85
FamilyMart (ファミリーマート Uライン三宮駅東売店),"中央区北長狭通1, Kōbe-shi, Hyōgo-ken, None Japan",34.6942933772,135.19332692,https://www.halal-navi.com/place/familymart-ファミリーマート-uライン三宮駅東売店/yv5z2845
7 eleven edogawa nakakasai 3-chome west,"Edogawa City, Tokyo, 134-0083 Japan",35.665213,139.871229,https://www.halal-navi.com/place/7-eleven-edogawa-nakakasai-3-chome-west/625678wx
7 eleven Nishi Kasai 3-chome,"Edogawa City, Tokyo, 134-0088 Japan",35.665049,139.858576,https://www.halal-navi.com/place/7-eleven-nishi-kasai-3-chome/n8xv66nx
7Eleven Asakusa Kaminarimon Mae,"Taito City, Tokyo, 111-0034 Japan",35.710527,139.796519,https://www.halal-navi.com/place/7eleven-asakusa-kaminarimon-mae/qpx2nnqx
7 eleven toshima minami-otsuka 3 chome,"Toshima City, Tokyo, 170-0005 Japan",35.727477,139.729415,https://www.halal-navi.com/place/7-eleven-toshima-minami-otsuka-3-chome/6nx977zx
IUJ school shop,"777 Kokusaichō, Minamiuonuma, Niigata Prefecture, 949-7248 Japan",37.148162,138.948801,https://www.halal-navi.com/place/iuj-school-shop/8r539z95
Gyomu Koide,"857-1 Inokuchi Shinden, Uonuma-shi, Niigata-ken, 946-0076 Japan",37.227983,138.973863,https://www.halal-navi.com/place/gyomu-koide/n85v4q65
Yamato cupid,"1153-1 Urasa, Minamiuonuma-shi, Niigata-ken, 949-7302 Japan",37.165533,138.925363,https://www.halal-navi.com/place/yamato-cupid/4qxnpw7x
業務スーパー,"2 Chome-20-１０ Iwadokita, Komae-shi, Tōkyō-to, 201-0004 Japan",35.636256,139.585895,https://www.halal-navi.com/place/業務スーパー/6n59n2yx
World Spices & Halal Meat mart,"6-58 Izumichō, Kashiwa, Chiba, 277-0022 Japan",35.858192,139.968316,https://www.halal-navi.com/place/world-spices-halal-meat-mart/8rxrpz2x
akhihabara,"Chiyoda City, Tokyo, 101-0021 Japan",35.700782,139.771782,https://www.halal-navi.com/place/akhihabara/765p9qnx
don quijote ginza honkan,"Minato City, Tokyo, 105-0004 Japan",35.66686,139.762193,https://www.halal-navi.com/place/don-quijote-ginza-honkan/qvx496y5
Don Quijote Kasai,"Edogawa City, Tokyo, 134-0081 Japan",35.6694222854,139.863767289,https://www.halal-navi.com/place/don-quijote-kasai/qv5492yx
Don Quijote Kasai,"Edogawa City, Tokyo, 134-0081 Japan",35.6694222854,139.863767289,https://www.halal-navi.com/place/don-quijote-kasai/62x67nw5
MEGA Don Quijote (MEGAドン・キホーテ 東名川崎店),"宮前区馬絹2-1-1, Kawasaki, Kanagawa, 216-0035 Japan",35.5824985261,139.591637767,https://www.halal-navi.com/place/mega-don-quijote-megaドン-キホーテ-東名川崎店/76xp7vn5
MEGA Don Quijote (MEGAドン・キホーテ 三郷店),"さつき平1-1-1, Misato, Saitama, 341-0021 Japan",35.8527554913,139.867204693,https://www.halal-navi.com/place/mega-don-quijote-megaドン-キホーテ-三郷店/qv5438yx
Don Quijote Mega Shibuya,"Shibuya City, Tokyo, 150-0042 Japan",35.660361,139.697776,https://www.halal-navi.com/place/don-quijote-mega-shibuya/62x68wwx
MEGA Don Quijote Tachikawa,"2 Chome-18-18 Akebonochō, Tachikawa, Tokyo, 190-0012 Japan",35.700425,139.415985,https://www.halal-navi.com/place/mega-don-quijote-tachikawa/8rx32495
Don Quijote Ginza,"8 Chome-10 Ginza, Minato City, Tokyo, 105-0004 Japan",35.666852,139.762296,https://www.halal-navi.com/place/don-quijote-ginza/n8xv6n6x
DON QUIJOTE,"Toyohashi, Aichi, 441-8061 Japan",34.743475,137.372404,https://www.halal-navi.com/place/don-quijote/4q5nn675
MEGA DON QUIJOTE,"Hamamatsu, Shizuoka, 432-8052 Japan",34.691935,137.713561,https://www.halal-navi.com/place/mega-don-quijote/qpx2nprx
MEGA Don Quijote Motoyawata,"4 Chome-9-1 Minamiyawata, Ichikawa, Chiba, 272-0023 Japan",35.719402,139.925984,https://www.halal-navi.com/place/mega-don-quijote-motoyawata/6nx973yx
MEGA Don Quijote Ōmori-San'nō,"3 Chome-6-3 Sanno, Ota City, Tokyo, 143-0023 Japan",35.583356,139.723482,https://www.halal-navi.com/place/mega-don-quijote-ōmori-sannō/6yxw722x
MEGA DON QUIJOTE,"Narita, Chiba, 286-0029 Japan",35.793266,140.323198,https://www.halal-navi.com/place/mega-don-quijote/yvxz7n45
MEGA DON QUIJOTE,"kabukicho, Shinjuku City, Tokyo, 160-0021 Japan",35.693776,139.701787,https://www.halal-navi.com/place/mega-don-quijote/w35y7qv5
MEGA Don Quijote Kawasaki,"1 Chome-44-1 Shinmeicho, Saiwai Ward, Kawasaki, Kanagawa, 212-0022 Japan",35.539783,139.689035,https://www.halal-navi.com/place/mega-don-quijote-kawasaki/67xqzq75
Mega Don Quijote Nago,"Nago, Okinawa, 905-0019 Japan",26.607963,127.983483,https://www.halal-navi.com/place/mega-don-quijote-nago/8r5r6q25
MEGA DON QUIJOTE JOETSU,"Joetsu, Niigata, 943-0173 Japan",37.14505,138.261604,https://www.halal-navi.com/place/mega-don-quijote-joetsu/9zx87n65
Roppongi,"Minato City, Tokyo, 106-0032 Japan",35.662429,139.734647,https://www.halal-navi.com/place/roppongi/625676wx
hiroshima hatchobori,"Naka-ku, Hiroshima, 730-0034 Japan",34.391174,132.46232,https://www.halal-navi.com/place/hiroshima-hatchobori/6y5w7w25
MEGA Don Quijote,"Kanazawa, Ishikawa, 920-0333 Japan",36.6014343279,136.613900252,https://www.halal-navi.com/place/mega-don-quijote/n8xv6w6x
MEGA Don Quijote Kanazawa,"Kanazawa, Ishikawa, 921-8043 Japan",36.550518476,136.631798632,https://www.halal-navi.com/place/mega-don-quijote-kanazawa/4q5nn975
Don Quijote,"Komatsu, Ishikawa, 923-0034 Japan",36.4203848546,136.475676969,https://www.halal-navi.com/place/don-quijote/qpx2nqrx
Don Quijote,"Nagaoka, Niigata, 940-0861 Japan",37.4585920548,138.876949064,https://www.halal-navi.com/place/don-quijote/6nx976yx
Don Quijote,"Nagaoka, Niigata, 940-2122 Japan",37.4475216799,138.799346387,https://www.halal-navi.com/place/don-quijote/yvxz7r45
MEGA DON QUIJOTR,"Joetsu, Niigata, 943-0173 Japan",37.14505,138.261604,https://www.halal-navi.com/place/mega-don-quijotr/8r5r6r25
Don Quijote Nara shop,"Kashiwagicho, Nara, 630-8031 Japan",34.6702213541,135.799508169,https://www.halal-navi.com/place/don-quijote-nara-shop/w3xy7vvx
Don Quijote,"Tenri, Nara, 632-0071 Japan",34.5955299172,135.824521109,https://www.halal-navi.com/place/don-quijote/675qz97x
MEGA Don Quijote,"Sakurai, Nara, 633-0067 Japan",34.5208405974,135.825023353,https://www.halal-navi.com/place/mega-don-quijote/79x77v2x
Don Quijote,"Kashiba, Nara, 639-0265 Japan",34.5622070392,135.701083839,https://www.halal-navi.com/place/don-quijote/8r53279x
Don Quijote,"Hachinohe, Aomori, 031-0801 Japan",40.5219277263,141.503377184,https://www.halal-navi.com/place/don-quijote/n85v6765
MEGA DON QUIJOTE,"Kashiwazaki, Niigata, 945-0033 Japan",37.368154,138.579059,https://www.halal-navi.com/place/mega-don-quijote/9zx87965
Don Quijote Hirosaki Shop,"Hirosaki, Aomori, 036-8084 Japan",40.5963200411,140.506491959,https://www.halal-navi.com/place/don-quijote-hirosaki-shop/4qxnn87x
Don Quijote,"Chuo-ku, Chiba, 260-0007 Japan",35.6198269969,140.128382966,https://www.halal-navi.com/place/don-quijote/qp52n7r5
Don Quijote,"Fuefuki, Yamanashi, 406-0032 Japan",35.643159229,138.624163605,https://www.halal-navi.com/place/don-quijote/765p96nx
Don Quijote,"Chiyoda City, Tokyo, 101-0021 Japan",35.7007821937,139.771781601,https://www.halal-navi.com/place/don-quijote/qvx49zy5
Don Quijote Ginza,"Minato City, Tokyo, 105-0004 Japan",35.66686027,139.762193039,https://www.halal-navi.com/place/don-quijote-ginza/62567rwx
Don Quijote Roppongi,"Minato City, Tokyo, 106-0032 Japan",35.66242871,139.734647423,https://www.halal-navi.com/place/don-quijote-roppongi/6y5w7625
DON QUIJOTE,"Minato City, Tokyo, 108-0071 Japan",35.6370203301,139.724588469,https://www.halal-navi.com/place/don-quijote/w3xy7yvx
Don Quijote Ichihara shop,"Chuo-ku, Chiba, 260-0825 Japan",35.5520559843,140.124298967,https://www.halal-navi.com/place/don-quijote-ichihara-shop/6n597vy5
Don Quijote Inage Naganuma shop,"Inage-ku, Chiba, 263-0005 Japan",35.6591876236,140.119160526,https://www.halal-navi.com/place/don-quijote-inage-naganuma-shop/yv5z7q4x
Mega Don Quijote Motoyawata,"Ichikawa, Chiba, 272-0023 Japan",35.7194016225,139.925983809,https://www.halal-navi.com/place/mega-don-quijote-motoyawata/8rxr632x
Don Quijote,"Ichikawa, Chiba, 272-0133 Japan",35.6827629931,139.913846143,https://www.halal-navi.com/place/don-quijote/9z587y6x
Don Quijote Funabashi Minamiguchi,"Funabashi, Chiba, 273-0005 Japan",35.6989958132,139.985871166,https://www.halal-navi.com/place/don-quijote-funabashi-minamiguchi/76xp9rn5
Don Quijote,"Chuo-ku, Osaka, 542-0086 Japan",34.6692283924,135.500067696,https://www.halal-navi.com/place/don-quijote/qv5497yx
MEGA Don Quijote,"Yachiyo, Chiba, 276-0028 Japan",35.7311513426,140.118432976,https://www.halal-navi.com/place/mega-don-quijote/62x67zw5
Don Quijote Kashiwa Station Store,"Kashiwa, Chiba, 277-0005 Japan",35.8602262178,139.971317165,https://www.halal-navi.com/place/don-quijote-kashiwa-station-store/6yxw7y2x
MEGA Don Quijote,"Kashiwa, Chiba, 277-0081 Japan",35.8541173544,139.962013252,https://www.halal-navi.com/place/mega-don-quijote/w35y73v5
MEGA Don Quijote Yotsukaidou shop,"Yotsukaido, Chiba, 284-0043 Japan",35.6528766892,140.170029625,https://www.halal-navi.com/place/mega-don-quijote-yotsukaidou-shop/67xqz775
MEGA Don Quijote Kanazawa,"Kanazawa, Ishikawa, 921-8043 Japan",36.550518476,136.631798632,https://www.halal-navi.com/place/mega-don-quijote-kanazawa/79577r25
MEGA Don Quijote Kanazawa,"Kanazawa, Ishikawa, 921-8043 Japan",36.550518476,136.631798632,https://www.halal-navi.com/place/mega-don-quijote-kanazawa/8rx32y95
Platinum Don Quijote Shirokanedai,"Minato City, Tokyo, 108-0071 Japan",35.6367898057,139.724430554,https://www.halal-navi.com/place/platinum-don-quijote-shirokanedai/675qzy7x
Don Quijote Asakusa,"Taito City, Tokyo, 111-0032 Japan",35.7139075004,139.793032072,https://www.halal-navi.com/place/don-quijote-asakusa/79x7722x
Don Quijote Kyōto Avanti Store,"Minami-ku, Kyoto, 601-8003 Japan",34.983429402,135.75997375,https://www.halal-navi.com/place/don-quijote-kyōto-avanti-store/8r532n9x
Don Quijote Ueno,"Bunkyo City, Tokyo, 113-0034 Japan",35.7080373025,139.770923965,https://www.halal-navi.com/place/don-quijote-ueno/n85v6y65
Don Quijote Machiya,"Arakawa City, Tokyo, 116-0001 Japan",35.7522416714,139.786651433,https://www.halal-navi.com/place/don-quijote-machiya/4qxnnv7x
MEGA Don Quijote Kan-Nana Umejima,"Adachi City, Tokyo, 121-0011 Japan",35.7784261101,139.805056415,https://www.halal-navi.com/place/mega-don-quijote-kan-nana-umejima/qp52nvr5
Don Quijote Takenotsuka,"Adachi City, Tokyo, 121-0813 Japan",35.7947852051,139.79439497,https://www.halal-navi.com/place/don-quijote-takenotsuka/6n597zy5
Don Quijote Kawaguchi Araijuku shop,"Kawaguchi, Saitama, 333-0833 Japan",35.8410708921,139.734154902,https://www.halal-navi.com/place/don-quijote-kawaguchi-araijuku-shop/yv5z7p4x
Don Quijote,"Katsushika City, Tokyo, 125-0062 Japan",35.7467685902,139.846299067,https://www.halal-navi.com/place/don-quijote/8rxr6y2x
Don Quijote la Park Mizue,"Edogawa City, Tokyo, 132-0011 Japan",35.6927661753,139.896689057,https://www.halal-navi.com/place/don-quijote-la-park-mizue/9z58786x
Don Quijote,"Otaru, Hokkaido, 047-0032 Japan",43.1977942092,140.995084159,https://www.halal-navi.com/place/don-quijote/6yxw7q2x
Mega Don Quijote Hakodate Shop,"Hakodate, Hokkaido, 041-0806 Japan",41.8137055084,140.756483898,https://www.halal-navi.com/place/mega-don-quijote-hakodate-shop/w35y7nv5
MEGA Don Quijote,"Muroran, Hokkaido, 050-0074 Japan",42.3539286618,141.017504744,https://www.halal-navi.com/place/mega-don-quijote/67xqz875
MEGA Don Quijote,"Asahikawa, Hokkaido, 070-0871 Japan",43.7987211726,142.377751842,https://www.halal-navi.com/place/mega-don-quijote/8rx32995
MEGA Don Quijote Nishiobihiro shop,"Obihiro, Hokkaido, 080-2471 Japan",42.9115739143,143.143469878,https://www.halal-navi.com/place/mega-don-quijote-nishiobihiro-shop/n8xv646x
Don Quijote Kushiro,"Kushiro-gun, Hokkaido, 088-0614 Japan",43.0094494157,144.413979985,https://www.halal-navi.com/place/don-quijote-kushiro/4q5nnp75
"Tomishiro Products Co.,ltd.","Madokoro, Oita, 870-0268 Japan",33.2410183731,131.720020808,https://www.halal-navi.com/place/tomishiro-products-co-ltd/6nx97nyx
Uosho,"Japan, Taitō-ku, Tōkyō-to, 111-0032 Japan",35.7200346,139.7949468,https://www.halal-navi.com/restaurant/uosho/3x1lw9duovl7yqr6
Akihabara Star Doner Kebab take-away,"Soto-Kanda 1-8-10 Bauhaus building first floor, Chiyoda, Tokyo, 101-0021 Japan",35.6990767,139.7703731,https://www.halal-navi.com/restaurant/akihabara-star-doner-kebab-take-away/dl8q472nu5g7xm23
Indian Restaurant Sitara,"Toyama-shi, Toyama-ken, 930-0004 Japan",36.6970303,137.2159459,https://www.halal-navi.com/restaurant/indian-restaurant-sitara/9voyj5eu840jx64q
Gajalu,"Inage-ku, Yayoicho, 4−1, Chiba, Chiba, 263-0022 Japan",35.6278093,140.1035063,https://www.halal-navi.com/restaurant/gajalu/v8m96wdmur5wrodk
Tandoori,"Inage-ku, Yayoi-cho 2-21 Onuma Building 1F, Chiba, Chiba, 263-0022 Japan",35.6156117,140.1113408,https://www.halal-navi.com/restaurant/tandoori/l49q3w05u92j2on6
Lumbini,"Chuo Ward, 2-7-15 Fujimi, Enomoto Building 2F, Chiba, Chiba, 260-0015 Japan",35.6101257,140.1173973,https://www.halal-navi.com/restaurant/lumbini/dl8q472nu2n7xm23
ASIA CURRY HOUSE (アジアカレーハウス),"3-9-24, Kotobashi, Sumida-ku, Tōkyō-to, 130-0022 Japan",35.6945472,139.8136901,https://www.halal-navi.com/restaurant/asia-curry-house-アジアカレーハウス/qx0kj6eukrv7le6o
Milet,"Villafore 101, 299-5 Chinami-cho, Mito, Ibaraki, 310-0851 Japan",36.3609156,140.4540762,https://www.halal-navi.com/restaurant/milet/d84q9wz2u0qw26kz
Hararuya Cafe,"24-3-17 Shinden, Matsudo, Chiba, 270-2241 Japan",35.7897906,139.9251571,https://www.halal-navi.com/restaurant/hararuya-cafe/x34kmjx3u1pj51l9
Rice Terrace Cafe,"1501-1 Kuwata, Misaki-machi, Isumi, Chiba, 299-4504 Japan",35.2976559,140.3504097,https://www.halal-navi.com/restaurant/rice-terrace-cafe/dlm5r7vxu24w3p0e
Chiran Paradise,"Chiran chou kouri 17853-1, Minamikyushu, Kagoshima, 897-0302 Japan",31.387231,130.4770912,https://www.halal-navi.com/restaurant/chiran-paradise/z8ly4j48u9ew06xq
Nan Master,"2-7 Nanaban-cho, Minato, Nagoya, Aichi, 455-0001 Japan",35.117144,136.887252,https://www.halal-navi.com/restaurant/nan-master/lekr47l5u1yw3yo2
New Ali Baba,"Yokohama-shi, Kanagawa-ken, 224-0045 Japan",35.5198089,139.5856701,https://www.halal-navi.com/restaurant/new-ali-baba/49q3w05updgj2on6
Madhina Isesaki,"Yanagihara-cho 1-1, Isesaki, Gunma, 372-0054 Japan",36.3357396,139.1994949,https://www.halal-navi.com/restaurant/madhina-isesaki/kpg81wr0um0wxyvd
Hai Shang Lou,"Tokoname-shi, Aichi-ken, 479-0881 Japan",34.8584184,136.8141321,https://www.halal-navi.com/restaurant/hai-shang-lou/ekr47l5u3ymw3yo2
Atiti(Motoyawata),"Minamiyawata 3-7-7 Naiku City Heights 102 (Motoyawata), Ichikawa, Chiba, 272-0023 Japan",35.7193832,139.9281616,https://www.halal-navi.com/restaurant/atiti-motoyawata/l49q3w05u39j2on6
Bawarchi,"Akabanenishi 1-7-1 , Kita, Tokyo, 115-0055 Japan",35.7770705,139.7190626,https://www.halal-navi.com/restaurant/bawarchi/ldqm0woxun2w5y21
Samrat Minami Aoyama,"Minamiaoyama 1-2-6 Toei Apato 1F, Minato-Ku, Tokyo, 107-0062 Japan",35.6714643,139.7260248,https://www.halal-navi.com/restaurant/samrat-minami-aoyama/o8kv713uo9mw15mz
Cafe Enak,"14-11 Ogimachi, Ebina-shi, Kanagawa-ken, 243-0436 Japan",35.4549825,139.3903161,https://www.halal-navi.com/restaurant/cafe-enak/np537nlu6mvjlor9
Nemaste,"Matsuyama-shi, Ehime-ken, 790-0905 Japan",33.83897,132.7900286,https://www.halal-navi.com/restaurant/nemaste/9voyj5eu895jx64q
Famille Osaka University Suita Campus,"Suita, Osaka, 565-0871 Japan",34.8220139,135.5244676,https://www.halal-navi.com/restaurant/famille-osaka-university-suita-campus/o8kv713uoelw15mz
Salam Kebab,"Yokohama-shi, Kanagawa-ken, 223-0052 Japan",35.5402513,139.6422131,https://www.halal-navi.com/restaurant/salam-kebab/34kmjx3u5y5j51l9
Cafe Utoku Machida,"Kanai-cho 2070-1, Machida, Tokyo, 195-0071 Japan",35.5756883,139.4691378,https://www.halal-navi.com/restaurant/cafe-utoku-machida/dlm5r7vxuy0w3p0e
Samrat Curry house Takanawaten,"Fujinami Bldg.1F, 1-2-1 Takanawa, Minato-Ku, Tokyo, 108-0074 Japan",35.6444671,139.7352754,https://www.halal-navi.com/restaurant/samrat-curry-house-takanawaten/6ro87q5up4y7xdk5
Cafe Indi,"Itō-shi, Shizuoka-ken, 414-0002 Japan",34.973489,139.094067,https://www.halal-navi.com/restaurant/cafe-indi/pvkew8du3zejn9gr
Mega Kebab Hiratsuka,"Beniya-cho 10-13, Hiratsuka, Kanagawa, 254-0043 Japan",35.3290757,139.3481039,https://www.halal-navi.com/restaurant/mega-kebab-hiratsuka/kpg81wr0uo1wxyvd
Teppan Dining SUN,"Sano-shi, Tochigi-ken, 327-0846 Japan",36.3148294,139.578562,https://www.halal-navi.com/restaurant/teppan-dining-sun/pg81wr0ukl8wxyvd
devi nan house,"Akita-shi, Akita-ken, 010-0854 Japan",39.7240898,140.132441,https://www.halal-navi.com/restaurant/devi-nan-house/49q3w05uo6zj2on6
チシティ,"多賀町3-5-1, Takamatsu-shi, Kagawa-ken, 760-0063 Japan",34.3372409,134.0645476,https://www.halal-navi.com/restaurant/チシティ/8m96wdmug5qwrodk
Bandoutarou ばんどう太郎 総本店),"長井戸297-1, Sashima-gun, Ibaraki-ken, 306-0404 Japan",36.1232744,139.8007308,https://www.halal-navi.com/restaurant/bandoutarou-ばんどう太郎-総本店/np537nlu6pkjlor9
Poon Hill,"2-10-2 Takajoujichouhigashi Takamatsucho, Miyagi, Miyagi, 981-0215 Japan",38.3824021,141.0704876,https://www.halal-navi.com/restaurant/poon-hill/r9650jkqulxjke4q
Warung Seminyak,"28-34 Sakaibashicho, Neyagawa, Osaka, 572-0018 Japan",34.7761861,135.6352434,https://www.halal-navi.com/restaurant/warung-seminyak/qx0kj6euvx07le6o
New Maharaja,"374−1, Kaminomoto, Higashimatsuyama, Saitama, 355-0075 Japan",36.0285803,139.3928076,https://www.halal-navi.com/restaurant/new-maharaja/no8kv713u6nw15mz
Tokodai Cafeteria (Ookayama Campus),"Ookayama 2-12-1, Meguro, Tokyo, 152-8550 Japan",35.6051229,139.6835302,https://www.halal-navi.com/restaurant/tokodai-cafeteria-ookayama-campus/d84q9wz2u3mw26kz
Kick Back Cafe,"Parksquare Musashino first floor, 2-11-1 Wakabacho, Chofu, Tokyo, 182-0003 Japan",35.6592559,139.5874499,https://www.halal-navi.com/restaurant/kick-back-cafe/6np537nluxejlor9
Halal Kebab,"2 Chome-44 Kuramotochō, Tokushima-shi, Tokushima-ken, 770-0042 Japan",34.0772714,134.5177911,https://www.halal-navi.com/restaurant/halal-kebab/dqm0woxul9xw5y21
Cafe Marhaban,"天王台2-1-1, Tsukuba-shi, Ibaraki-ken, 305-0006 Japan",36.1112739,140.1013564,https://www.halal-navi.com/restaurant/cafe-marhaban/8ly4j48uo0ow06xq
Nile Pakistan Restaurent,"Niigata-shi, Niigata-ken, 950-3303 Japan",37.965994,139.225045,https://www.halal-navi.com/restaurant/nile-pakistan-restaurent/2dn1jmgugzej9340
Kyukamura Hiruzen Kogen,"Kami-Fukuda, Hiruzen, Maniwa-shi, Okayama-ken, 717-0602 Japan",35.2940086,133.6312436,https://www.halal-navi.com/restaurant/kyukamura-hiruzen-kogen/3x1lw9du6o07yqr6
Habibie,"6-11-37 Hakozaki, Higashi-ku, Fukuoka, Fukuoka, 812-0053 Japan",33.6238965,130.421785,https://www.halal-navi.com/restaurant/habibie/dlm5r7vxu35w3p0e
Spicy India Tsuchihashi,"Kawasaki-shi, Kanagawa-ken, 216-0005 Japan",35.6026618,139.5485186,https://www.halal-navi.com/restaurant/spicy-india-tsuchihashi/0ry1wemuo2ljpmqk
Spicy India Shibokuhoncho,"Kawasaki-shi, Kanagawa-ken, 216-0031 Japan",35.6006726,139.5810098,https://www.halal-navi.com/restaurant/spicy-india-shibokuhoncho/9650jkqu535jke4q
Al-Amin,"2F1-7-5 Monzennakacho, Koto, Tokyo, 135-0048 Japan",35.6727688,139.7945265,https://www.halal-navi.com/restaurant/al-amin/6pvkew8du2ljn9gr
Yıldız Turkish Restaurant,"Setagaya-ku, Tōkyō-to, 157-0077 Japan",35.5625945,139.718043,https://www.halal-navi.com/restaurant/yıldız-turkish-restaurant/ekr47l5u3z8w3yo2
Starbucks (Starbucks Coffee TSUTAYA 大崎駅前店),"大崎2-10-1, Shinagawa-ku, Tōkyō-to, 141-0032 Japan",35.6175082,139.7287331,https://www.halal-navi.com/restaurant/starbucks-starbucks-coffee-tsutaya-大崎駅前店/84q9wz2ue84w26kz
Ruchi Restaurant,"Sashima-gun, Ibaraki-ken, 306-0433 Japan",36.1110531,139.798502,https://www.halal-navi.com/restaurant/ruchi-restaurant/34kmjx3u5prj51l9
Spicy India Miyazakidai,"Kawasaki-shi, Kanagawa-ken, 216-0033 Japan",35.5869655,139.5941204,https://www.halal-navi.com/restaurant/spicy-india-miyazakidai/6ro87q5u9x27xdk5
Spicy India Tamapalaza,"Yokohama-shi, Kanagawa-ken, 225-0002 Japan",35.5777503,139.5552194,https://www.halal-navi.com/restaurant/spicy-india-tamapalaza/dqm0woxu134w5y21
Sobe’s Cafe,"Yamanokami 578 - 4, Hanamaki, Iwate, 025-0024 Japan",39.360137,141.111447,https://www.halal-navi.com/restaurant/sobe-s-cafe/kpg81wr0uxrwxyvd
アボカドダイニング&カトマンズフカバー,"Toshima-ku, Tōkyō-to, 170-0002 Japan",35.7306872,139.7412587,https://www.halal-navi.com/restaurant/アボカドダイニング-カトマンズフカバー/84q9wz2um9ow26kz
Starbucks (Starbucks Coffee 安城篠目店),"篠目町肥田59-1, Anjō-shi, Aichi-ken, 446-0073 Japan",34.9790737,137.065603,https://www.halal-navi.com/restaurant/starbucks-starbucks-coffee-安城篠目店/qx0kj6eu3817le6o
ＧＥＮＪＩ,"Ozakicho, 510-1, Hannan-shi, Osaka, 599-0202 Japan",34.356891,135.248408,https://www.halal-navi.com/restaurant/ｇｅｎｊｉ/e6l9jgeuqyow0qd4
The Kebap,"Japan, 〒001-0012 Hokkaidō, Sapporo-shi, Sapporo-shi, Hokkaidō, 001-0012 Japan",43.0751997,141.3481656,https://www.halal-navi.com/restaurant/the-kebap/0ry1wemumlnjpmqk
Hokkaiwasho NAKAJIMA (Hotel Mystays Premier),"2 Chome-2-10 Minami 9 Jōnishi, Sapporo-shi, Hokkaidō, 064-0809 Japan",43.049567,141.356987,https://www.halal-navi.com/restaurant/hokkaiwasho-nakajima-hotel-mystays-premier/pg81wr0u4xkwxyvd
Chinese Dining KOKAKU (Sapporo Grand Hotel),"Japan, Sapporo-shi, Hokkaidō, 060-0001 Japan",43.0629089,141.3507717,https://www.halal-navi.com/restaurant/chinese-dining-kokaku-sapporo-grand-hotel/qxy3wydungpwnpkm
Garden Dining WARAKU (Sapporo Grand Hotel),"Japan, Sapporo-shi, Hokkaidō, 060-0001 Japan",43.0629089,141.3507717,https://www.halal-navi.com/restaurant/garden-dining-waraku-sapporo-grand-hotel/9voyj5eu3zljx64q
Mohamed,"Matsuyama-shi, Ehime-ken, 791-8043 Japan",33.8133987,132.714942,https://www.halal-navi.com/restaurant/mohamed/84q9wz2umzew26kz
Northern Terrace Dinner (Sapporo Grand Hotel),"4 Chome Kita 1 Jōnishi, Sapporo-shi, Hokkaidō, 060-0001 Japan",43.0629089,141.3507717,https://www.halal-navi.com/restaurant/northern-terrace-dinner-sapporo-grand-hotel/ekr47l5umg6w3yo2
Sariraya Halal Restaurant,"Nishio-shi, Aichi-ken, 445-0802 Japan",34.9002479,137.0607342,https://www.halal-navi.com/restaurant/sariraya-halal-restaurant/2dn1jmgugmzj9340
India Curry MIRCH,"20 Chome-1-16 Minami 5 Jōnishi, Sapporo-shi, Hokkaidō, 064-0805 Japan",43.0521823,141.3278376,https://www.halal-navi.com/restaurant/india-curry-mirch/np537nlun2yjlor9
Fukuyama Brewering Direct Sales Shop,"2 Chome-4-1 Naebochō, Sapporo-shi, Hokkaidō, 065-0043 Japan",43.0724723,141.3834917,https://www.halal-navi.com/restaurant/fukuyama-brewering-direct-sales-shop/lm5r7vxu9pew3p0e
IKI Laboratory,"Japan, 〒060-0061 Hokkaidō, Sapporo-shi, Sapporo-shi, Hokkaidō, 060-0061 Japan",43.0581397,141.3499199,https://www.halal-navi.com/restaurant/iki-laboratory/pg81wr0u4k2wxyvd
Vanam,"743 Yadawarachō, Nara-shi, Nara-ken, 630-2166 Japan",34.6462401,135.8979694,https://www.halal-navi.com/restaurant/vanam/qx0kj6eunkz7le6o
Tandoor Indian Restaurant,"28-30 Saijōnishihonmachi, Higashihiroshima-shi, Hiroshima-ken, 739-0043 Japan",34.4278652,132.7363193,https://www.halal-navi.com/restaurant/tandoor-indian-restaurant/9650jkquzzpjke4q
Indian Food Dining JYOTI,"Japan, 〒060-0062 Hokkaidō, Sapporo-shi, Sapporo-shi, Hokkaidō, 060-0062 Japan",43.0572741,141.3521269,https://www.halal-navi.com/restaurant/indian-food-dining-jyoti/np537nlun22jlor9
Central Cafetaria At Hokkaido University,"8 Chome Kita 11 Jōnishi, Sapporo-shi, Hokkaidō, 001-0011 Japan",43.0733534,141.3415786,https://www.halal-navi.com/restaurant/central-cafetaria-at-hokkaido-university/9voyj5eu38zjx64q
Tsuruga Buffet Dinning Sapporo,"10 Chome-1-6 Kita 23 Jōnishi, Sapporo-shi, Hokkaidō, 001-0023 Japan",43.0638498,141.3499496,https://www.halal-navi.com/restaurant/tsuruga-buffet-dinning-sapporo/5rygjpmu4qqjxz8m
Ohtsuki Foods Store Carrot Susukino,"2 Chome-2 Minami 7 Jōnishi, Sapporo-shi, Hokkaidō, 064-0807 Japan",43.052329,141.352729,https://www.halal-navi.com/restaurant/ohtsuki-foods-store-carrot-susukino/34kmjx3uk5kj51l9
Pasta De Nord,"Japan, 〒007-0836 Hokkaidō, Sapporo-shi, Sapporo-shi, Hokkaidō, 007-0836 Japan",43.107124,141.368138,https://www.halal-navi.com/restaurant/pasta-de-nord/e6l9jgeurl0w0qd4
Aoisora Nagarerukumo,"22-1-7 Minami 1 Jōnishi, Sapporo-shi, Hokkaidō, 060-0061 Japan",43.055952,141.3242778,https://www.halal-navi.com/restaurant/aoisora-nagarerukumo/pg81wr0u4x2wxyvd
Cocoon Nest,"2 Chome-1-2 Miyagaoka, Sapporo-shi, Hokkaidō, 064-0959 Japan",43.0579713,141.3112162,https://www.halal-navi.com/restaurant/cocoon-nest/qx0kj6eun5z7le6o
Mintaru,"3 Chome-2-19 Kita 14 Jōnishi, Sapporo-shi, Hokkaidō, 001-0014 Japan",43.0780382,141.3482953,https://www.halal-navi.com/restaurant/mintaru/qxy3wydundqwnpkm
Jay,"7 Chome-2-23 Ōmiyachō, Nara-shi, Nara-ken, 630-8115 Japan",34.685748,135.8062389,https://www.halal-navi.com/restaurant/jay/8m96wdmupgzwrodk
WATAN Sapporo Halal Food,"3 Chome-1-20 Kita 19 Jōnishi, Sapporo-shi, Hokkaidō, 001-0019 Japan",43.0832347,141.3465063,https://www.halal-navi.com/restaurant/watan-sapporo-halal-food/84q9wz2u3mkw26kz
Mellow Cafe,"1-8 Konishichō, Nara-shi, Nara-ken, 630-8226 Japan",34.6828575,135.8277997,https://www.halal-navi.com/restaurant/mellow-cafe/2dn1jmguvglj9340
Aarti Ami Premium Outlet,"Japan, 〒300-1161 Ibaraki-ken, Inashiki-gun, Ibaraki-ken, 300-1161 Japan",35.9845879,140.2380952,https://www.halal-navi.com/restaurant/aarti-ami-premium-outlet/np537nlu6qpjlor9
Little Tree Takeaway,"Japan, Sapporo-shi, Hokkaidō, 060-0061 Japan",43.05664,141.331381,https://www.halal-navi.com/restaurant/little-tree-takeaway/84q9wz2u36kw26kz
Juntara Curry,"3 Chome-8-9 Higashisapporo 2 Jō, Sapporo-shi, Hokkaidō, 003-0002 Japan",43.0504194,141.3869181,https://www.halal-navi.com/restaurant/juntara-curry/l8q472nuk8m7xm23
Sweets & Potato,"Japan, 〒065-0023 Hokkaidō, Sapporo-shi, Sapporo-shi, Hokkaidō, 065-0023 Japan",43.0938695,141.3734037,https://www.halal-navi.com/restaurant/sweets-potato/np537nlunpyjlor9
Namaste,"Japan, 〒732-0822 Hiroshima-ken, Hiroshima-shi, Hiroshima-shi, Hiroshima-ken, 732-0822 Japan",34.3972529,132.4751575,https://www.halal-navi.com/restaurant/namaste/o8kv713uyy9w15mz
Racoolto Hiroshima International Plaza,"3 Chome-3-1 Kagamiyama, Higashihiroshima-shi, Hiroshima-ken, 739-0046 Japan",34.401247,132.734122,https://www.halal-navi.com/restaurant/racoolto-hiroshima-international-plaza/dqm0woxullxw5y21
Aarti Shin-nagata branch,"Asta Plaza First 213 5-2-1 Wakamatsu-cho, Nagata-ku , Kōbe-shi, Hyōgo-ken, 657-0057 Japan",34.6576696,135.1454709,https://www.halal-navi.com/restaurant/aarti-shin-nagata-branch/e6l9jgeu656w0qd4
Royal India Restaurant,"14-51 Saijōnishihonmachi, Higashihiroshima-shi, Hiroshima-ken, 739-0043 Japan",34.428322,132.733777,https://www.halal-navi.com/restaurant/royal-india-restaurant/3rg5j3ruggmjqzlv
Sapporo Kaniya,"2 Chome-11 Minami 4 Jōnishi, Sapporo-shi, Hokkaidō, 064-0804 Japan",43.056241,141.355343,https://www.halal-navi.com/restaurant/sapporo-kaniya/6ro87q5ur9z7xdk5
JICA Hokkaido,"Japan, 〒003-0026 Hokkaidō, Sapporo-shi, Sapporo-shi, Hokkaidō, 003-0026 Japan",43.0361111,141.4322221,https://www.halal-navi.com/restaurant/jica-hokkaido/3x1lw9duo597yqr6
Krishna,"Japan, 〒060-0042 Hokkaidō, Sapporo-shi, Hokkaidō, 060-0042 Japan",43.059842,141.351127,https://www.halal-navi.com/restaurant/krishna/8ly4j48u1ozw06xq
AMARA DELI,"押上1-1-2, Sumida-ku, Tōkyō-to, 131-0045 Japan",35.71018,139.812189,https://www.halal-navi.com/restaurant/amara-deli/dqm0woxu926w5y21
Dil,"Tsukurimichi, 545, Imizu, Toyama, 934-0042 Japan",36.7517134,137.0855823,https://www.halal-navi.com/restaurant/dil/o2dn1jmguldj9340
The French Blue,"〒540-0034, Ōsaka-shi, Ōsaka-fu, 540-0034 Japan",34.6886595,135.513797,https://www.halal-navi.com/restaurant/the-french-blue/5rygjpmu45njxz8m
Aarti Shimoyama,"Grand Maison Kobe Yamate 1F 5-12-9 Shimoyamatedōri, Chuo, Kōbe-shi, Hyōgo-ken, 650-0011 Japan",34.6903114,135.1823538,https://www.halal-navi.com/restaurant/aarti-shimoyama/qx0kj6eu3pl7le6o
AARTI アールティー あべのルシアス店,"阿倍野筋1-5-1, Ōsaka-shi, Ōsaka-fu, 545-0052 Japan",34.646822,135.511043,https://www.halal-navi.com/restaurant/aarti-アールティー-あべのルシアス店/3x1lw9du6ly7yqr6
Kusasenri Greenpark,"2391-15 Nagakusa, Aso-shi, Kumamoto-ken, 869-2231 Japan",32.886147,131.054318,https://www.halal-navi.com/restaurant/kusasenri-greenpark/lm5r7vxu99ew3p0e
Stella Maris,"Japan, 〒005-0004 Hokkaidō, Sapporo-shi, Sapporo-shi, Hokkaidō, 005-0004 Japan",43.0136134,141.3669332,https://www.halal-navi.com/restaurant/stella-maris/3rg5j3rugqmjqzlv
Kebap Station,"4 Chome-2-37 Hiragishi 1 Jō, Sapporo-shi, Hokkaidō, 062-0931 Japan",43.0395751,141.3655035,https://www.halal-navi.com/restaurant/kebap-station/ekr47l5um3nw3yo2
Shanti,"1604-3 Nakayamachō, Nara-shi, Nara-ken, 631-0012 Japan",34.7135517,135.7729917,https://www.halal-navi.com/restaurant/shanti/3x1lw9duom97yqr6
sagarmatha india nepal food,"Ōsaka-shi, Ōsaka-fu, 552-0021 Japan",34.676225,135.494271,https://www.halal-navi.com/restaurant/sagarmatha-india-nepal-food/ekr47l5ummnw3yo2
Raju Kusatsu,"Noji 7-19-5, Kusatsu, Shiga, 525-0059 Japan",34.997006,135.949382,https://www.halal-navi.com/restaurant/raju-kusatsu/y6ro87q5u237xdk5
Swagat Roppongi,"Roppongi, 2 Chome−2−2, Itopia 1F, Minato, Tokyo, 106-0032 Japan",35.6677616,139.7393131,https://www.halal-navi.com/restaurant/swagat-roppongi/no8kv713u80w15mz
Tateyama,"Japan, 〒930-1414 Toyama-ken, Nakaniikawa-gun, Toyama-ken, 930-1406 Japan",36.5753056,137.6138597,https://www.halal-navi.com/restaurant/tateyama/e6l9jgeurr0w0qd4
Tea Ceremony Koto,"Nishi Goshonouchi-cho Kinugasa Kita-ku, Kyōto-shi, Kyōto-fu, 603-8377 Japan",35.0040696,135.767558,https://www.halal-navi.com/restaurant/tea-ceremony-koto/qxy3wydunnqwnpkm
Halal Food Plaza Nabi San,"6 Chome-11-37 Hakozaki, Fukuoka-shi, Fukuoka-ken, 812-0053 Japan",33.622496,130.4209609,https://www.halal-navi.com/restaurant/halal-food-plaza-nabi-san/9voyj5eu33zjx64q
ENZA Cafe,"Japan, 〒381-0401 Nagano-ken, Shimotakai-gun, Nagano-ken, 381-0401 Japan",36.73051,138.444893,https://www.halal-navi.com/restaurant/enza-cafe/qx0kj6eunnz7le6o
Tandoor 4th Floor,"Japan, 〒141-0021 Tōkyō-to, Shinagawa-ku, Tōkyō-to, 141-0021 Japan",35.634761,139.716017,https://www.halal-navi.com/restaurant/tandoor-4th-floor/84q9wz2u33kw26kz
Gitanjali-MAHAL,"KJ Bldg, 1F, 4-3-16 Babadori, Utsunomiya-shi, Tochigi-ken, 320-0026 Japan",36.5612625,139.8881708,https://www.halal-navi.com/restaurant/gitanjali-mahal/pg81wr0u442wxyvd
Sushi,"Misato-shi, Saitama-ken, 341-0003 Japan",35.8566677,139.863461,https://www.halal-navi.com/restaurant/sushi/2dn1jmgu688j9340
Hidaya SHO,"6 Chome-6 Hanasatomachi, Takayama-shi, Gifu-ken, 506-0026 Japan",36.1416644,137.2528311,https://www.halal-navi.com/restaurant/hidaya-sho/3x1lw9duoo97yqr6
Kababs Indian Restaurant,"Nakagamigun Chatancho　Mihama 3-1-10　2F, Okinawa, Okinawa, 904-0115 Japan",26.322272,127.757129,https://www.halal-navi.com/restaurant/kababs-indian-restaurant/95rygjpmu6djxz8m
175° Deno Tantanmen Ekimaedori,"Japan, 〒060-0002 Hokkaidō, Sapporo-shi, Sapporo-shi, Hokkaidō, 060-0002 Japan",43.0635883,141.3519645,https://www.halal-navi.com/restaurant/175-deno-tantanmen-ekimaedori/49q3w05upx4j2on6
Kijima Kogen,"Japan, Beppu-shi, Ōita-ken, 874-0000 Japan",33.2644011,131.4268118,https://www.halal-navi.com/restaurant/kijima-kogen/3rg5j3rug5mjqzlv
Kappou Yama,"3-15-1, Chuo-ku, Uemine, in Saitama Arts Theater, Saitama, Saitama, 338-0014 Japan",35.8770566,139.6219568,https://www.halal-navi.com/restaurant/kappou-yama/ke6l9jgeu3kw0qd4
Maha & Maha,"2-91 Nakasato, Nakagawa, Nagoya, Aichi, 454-0921 Japan",35.1388695,136.8464781,https://www.halal-navi.com/restaurant/maha-maha/5qxy3wyduplwnpkm
Sweet & Peace,"11-87 Higashimobara, Mobara, Chiba, 297-0032 Japan",35.4151288,140.3185145,https://www.halal-navi.com/restaurant/sweet-peace/m9voyj5euo1jx64q
Rittsun,"747-84 Uehara, Tsukuba, Ibaraki, 305-0055 Japan",36.0545728,140.1131619,https://www.halal-navi.com/restaurant/rittsun/6np537nluq5jlor9
Hatoppuru,"937 Kamahara, Tsumagoi-mura, Azuma, Gunma, 377-1524 Japan",36.440013,138.5287267,https://www.halal-navi.com/restaurant/hatoppuru/kpg81wr0uelwxyvd
Cocolate,"2-18 Saiwaimachi, Beppu-shi, Ōita-ken, 874-0907 Japan",33.236544,131.6078701,https://www.halal-navi.com/restaurant/cocolate/qxy3wydun0qwnpkm
Palmyra,"T. O Bldg., 2F, 2-58-8, Ikebukuro, Toshima, Tokyo, 171-0014 Japan",35.735038,139.708911,https://www.halal-navi.com/restaurant/palmyra/y6ro87q5udq7xdk5
King Tut,"Aoi-ku Kitaando 5-50-18 1F, Shizuoka, Shizuoka, 420-0881 Japan",35.001212,138.3911774,https://www.halal-navi.com/restaurant/king-tut/5qxy3wyduvdwnpkm
Medi Moon,"Kawarachou 1-5-8, Hidama Daiya building 2F, Chuo, Osaka, 541-0048 Japan",34.6861438,135.5080146,https://www.halal-navi.com/restaurant/medi-moon/dlm5r7vxu60w3p0e
Kara Deniz,"3-44 Shiomigaoka, Midori-ku, Nagoya, Aichi, 458-0036  Japan",35.0808771,136.9649423,https://www.halal-navi.com/restaurant/kara-deniz/d84q9wz2uxzw26kz
Dolphin Garden,"1F, 21-5, Yawata-genjigaito, Yawata, Kyoto, 614-8025 Japan",34.8796914,135.7060601,https://www.halal-navi.com/restaurant/dolphin-garden/6np537nlueejlor9
Ani & Ivan,"Naka-ku, Kamidamachi, 414−2, Hamamatsu, Shizuoka, 432-8047 Japan",34.704922,137.7340538,https://www.halal-navi.com/restaurant/ani-ivan/lekr47l5u8gw3yo2
Anatolia,"Roppongi 3-13-10 (Sanbiru 2 1F), Minato, Tokyo, 106-0032 Japan",35.6629487,139.7335091,https://www.halal-navi.com/restaurant/anatolia/6np537nluqmjlor9
Sushiro Yahata-higashida,"3-2-12 Higashida, Yahatahigashi-ku, Kitakyushu, Fukuoka, 805-0071 Japan",33.871,130.809225,https://www.halal-navi.com/restaurant/sushiro-yahata-higashida/5qxy3wyduodwnpkm
Ama Hut HACHIMAN,"819 Ōsatsuchō, Toba-shi, Mie-ken, 517-0032 Japan",34.3882634,136.8985062,https://www.halal-navi.com/restaurant/ama-hut-hachiman/pvkew8duxxnjn9gr
Ahuja Restaurant,"8-4 Motomachi, Beppu-shi, Ōita-ken, 874-0944 Japan",33.2776173,131.5047859,https://www.halal-navi.com/restaurant/ahuja-restaurant/ekr47l5umvnw3yo2
Raju Katata,"Otsu Honkatata 4-18-38-104, Otsu, Shiga, 520-0242 Japan",35.1197267,135.9186772,https://www.halal-navi.com/restaurant/raju-katata/63rg5j3ruyljqzlv
Deva Deva Cafe,"Kichijoji Honcho 2-14-7, Kissho Building 2F, Musashino, Tokyo, 180-0004 Japan",35.7065889,139.5776667,https://www.halal-navi.com/restaurant/deva-deva-cafe/lekr47l5upgw3yo2
YONTORI,"1 Chome-15 Higashitogawachō, Ōgaki-shi, Gifu-ken, 503-0903 Japan",35.3636006,136.6186881,https://www.halal-navi.com/restaurant/yontori/8m96wdmuppzwrodk
Awahenroshoba Bizan,"Awa Odori Kaikan 5F, 2 Chome-2-20 Shinmachibashi, Tokushima-shi, Tokushima-ken, 770-0904 Japan",34.0700889,134.5449381,https://www.halal-navi.com/restaurant/awahenroshoba-bizan/0ry1wemum3pjpmqk
HANA-CYAYA,"2 Chome-60 Hanaokamachi, Takayama-shi, Gifu-ken, 506-0009 Japan",36.1460515,137.2514691,https://www.halal-navi.com/restaurant/hana-cyaya/2dn1jmguvvlj9340
Ikokunokaze,"516-1 Mukōmachi, Kōfu-shi, Yamanashi-ken, 400-0813 Japan",35.6479021,138.6150846,https://www.halal-navi.com/restaurant/ikokunokaze/6ro87q5ur8z7xdk5
Cheema Aunty,"3 Chome-16-2 Kinugawa, Ōtsu-shi, Shiga-ken, 520-0244 Japan",35.1178952,135.9027084,https://www.halal-navi.com/restaurant/cheema-aunty/l8q472nukkm7xm23
Yuki Kitchen Studio Potimaron,"Taihaku-ku Kongosawa 1-30-11, Sendai, Miyagi, 982-0803 Japan",38.2284054,140.8450674,https://www.halal-navi.com/restaurant/yuki-kitchen-studio-potimaron/ke6l9jgeu83w0qd4
Hotoritei Cafe,"62 Minamikatakawamachi, Hagi-shi, Yamaguchi-ken, 758-0076 Japan",34.4112069,131.3920584,https://www.halal-navi.com/restaurant/hotoritei-cafe/8ly4j48u1dzw06xq
Ninomiya Halal Bread factory,"Sakuragaokacho 18-4 Ninomiya Bldg B1F, Shibuya, Tokyo, 150-0031 Japan",35.6558036,139.7011491,https://www.halal-navi.com/restaurant/ninomiya-halal-bread-factory/6np537nlupnjlor9
Hatoba,"S-Pulse Dream Plaza, 1F, 13-15 Irifunechō, Shizuoka-shi, Shizuoka-ken, 424-0942 Japan",35.0106111,138.4928236,https://www.halal-navi.com/restaurant/hatoba/49q3w05upp4j2on6
Nazuna Batake,"Kings-building 2F, 2-1-22 Tawara-machi, Tomakomai, Hokkaido, 053-0022 Japan",42.6342515,141.6006054,https://www.halal-navi.com/restaurant/nazuna-batake/x34kmjx3unpj51l9
Kurumi Toruku Ryouri,"Minamiyana, 2 Chome−7−37, Hadano, Kanagawa, 257-0003 Japan",35.3707493,139.2732125,https://www.halal-navi.com/restaurant/kurumi-toruku-ryouri/8qx0kj6euvp7le6o
Ineya Delica Corner,"Waseda Ineya Main Building, Nishiwaseda, 1 Chome-4, Shinjuku, Tokyo, 169-0051 Japan",35.7094606,139.7169871,https://www.halal-navi.com/restaurant/ineya-delica-corner/8qx0kj6eurp7le6o
TARKARI,"Showa-ku Shiotsuketori 3-17-6, Nagoya, Aichi, 466-0022 Japan",35.1474402,136.9381218,https://www.halal-navi.com/restaurant/tarkari/v8m96wdmu14wrodk
Santipur Cafe,"Chikusa-ku Kusumoto-cho 2-83, Nagoya, Aichi, 464-0037 Japan",35.1736893,136.9406303,https://www.halal-navi.com/restaurant/santipur-cafe/dl8q472nulg7xm23
Rubinaa by the Bay,"Uchinada-cho, Onebu 7-120, Kahoku, Ishikawa, 920-0266 Japan",36.650723,136.644612,https://www.halal-navi.com/restaurant/rubinaa-by-the-bay/no8kv713uzkw15mz
Sultan Shin-ogawamachi,"Koufu bldg. 1F,4-21 Shin-ogawamachi, Shinjuku, Tokyo, 162-0814 Japan",35.6951799,139.7668774,https://www.halal-navi.com/restaurant/sultan-shin-ogawamachi/ke6l9jgeu9nw0qd4
Sona,"Kamikyou machi 6-23, Sasebo, Nagasaki, 857-0872 Japan",33.1694806,129.7223667,https://www.halal-navi.com/restaurant/sona/l49q3w05u02j2on6
Maharaja Nagoya,"JR Central Towers towers plaza 13F, 1-1-4, Meieki, Nakamura-ku, Nagoya, Aichi, 450-6013 Japan",35.1706804,136.8830719,https://www.halal-navi.com/restaurant/maharaja-nagoya/x34kmjx3u41j51l9
New Boishakhi Anjo,"Toei-cho 1-5-1, Anjo, Aichi, 446-0007 Japan",34.9883191,137.0848421,https://www.halal-navi.com/restaurant/new-boishakhi-anjo/d84q9wz2u8nw26kz
Djakarta Food,"Bunkyo 3-chome, 11-8 Kitamura tenant 1B, Fukui, Fukui, 910-0016 Japan",36.0777597,136.2146967,https://www.halal-navi.com/restaurant/djakarta-food/kpg81wr0u00wxyvd
Blue Moon,"Morokawa, 466−1, Koga, Ibaraki, 306-0126 Japan",36.197644,139.8213926,https://www.halal-navi.com/restaurant/blue-moon/m9voyj5eue6jx64q
Indo Asia Dining,"Showa-ku Dankei-dori 3-14-112, Nagoya, Aichi, 466-0842 Japan",35.1438598,136.9460587,https://www.halal-navi.com/restaurant/indo-asia-dining/o2dn1jmgunvj9340
Spice Plaza,"Yokohama, Kanagawa, 240-0003 Japan",35.4538938,139.6004468,https://www.halal-navi.com/restaurant/spice-plaza/34kmjx3unxlj51l9
Sapna Imaike,"Chikusa-ku Imaike 3-12-13, Nagoya, Aichi, 464-0850 Japan",35.166,136.936143,https://www.halal-navi.com/restaurant/sapna-imaike/6pvkew8du5yjn9gr
Dhoom Dhalaka,"Chikusa-ku Nekogahora dori 4-27, Nagoya, Aichi, 464-0032 Japan",35.1665468,136.967,https://www.halal-navi.com/restaurant/dhoom-dhalaka/no8kv713ugkw15mz
Maharaj Palace,"Tenpaku-ku Yakiyama 1-101, Nagoya, Aichi, 468-0002 Japan",35.167561,136.901622,https://www.halal-navi.com/restaurant/maharaj-palace/z8ly4j48un4w06xq
Sama sama,"Naka-ku Sakae 3-9-1, Nagoya, Aichi, 460-0008 Japan",35.167473,136.903673,https://www.halal-navi.com/restaurant/sama-sama/63rg5j3ru2ljqzlv
Bungaraya,"Naka-ku Oosu 4-1-11, Nagoya, Aichi, 460-0011 Japan",35.1615121,136.9073854,https://www.halal-navi.com/restaurant/bungaraya/r9650jkqu60jke4q
Turkish Taste,"Nakamura-ku Torii-dori 2-30-1 1F, Nagoya, Aichi, 453-0044 Japan",35.175623,136.8655605,https://www.halal-navi.com/restaurant/turkish-taste/5qxy3wydu2kwnpkm
SAISHOKUKENBI,"Shouwa-ku Kouji-cho Ishisaka 37-6 Yagoto Ishisaka bldg. 1F, Nagoya, Aichi, 466-0000 Japan",35.7023477,139.6973516,https://www.halal-navi.com/restaurant/saishokukenbi/kpg81wr0uz0wxyvd
Jinenan,"Showa-ku Kawanayama-cho 51-1 Kawanayama bldg Iki Iki Garden, Nagoya, Aichi, 466-0827 Japan",35.1468132,136.9550108,https://www.halal-navi.com/restaurant/jinenan/ke6l9jgeumnw0qd4
Pak Mahal,"1-2-28 Katayanagichō, Tochigi, Tochigi , 328-0053 Japan",36.3739217,139.7280215,https://www.halal-navi.com/restaurant/pak-mahal/6np537nluo9jlor9
Darbar,"Chuo 1-6-1 VinaWalk FoodCourt3 1F, Ebina-shi, Kanagawa, 243-0400 Japan",35.452691,139.3939408,https://www.halal-navi.com/restaurant/darbar/ekr47l5u02kw3yo2
Tam Tam,"3-18-15, Shoan, Suginami, Tokyo, 167-0042 Japan",35.703467,139.5948557,https://www.halal-navi.com/restaurant/tam-tam/r9650jkquqrjke4q
Tsuchi Ni Inochi To Ai Arite,"Wakakusa-cho 2-6-8, Toyota, Aichi, 471-0061 Japan",35.1107602,137.1538806,https://www.halal-navi.com/restaurant/tsuchi-ni-inochi-to-ai-arite/6pvkew8du4yjn9gr
Royal Curry,"Tenpaku-ku Akaike 1-1301, Nagoya, Aichi, 468-0013 Japan",35.1169579,137.011795,https://www.halal-navi.com/restaurant/royal-curry/y6ro87q5uq37xdk5
Indus,"Naka-ku Nishiki 3-6-15 Tateno-machi 2F, Nagoya, Aichi, 460-0003 Japan",35.1721769,136.9073854,https://www.halal-navi.com/restaurant/indus/ldqm0woxum3w5y21
Okuma Garden House,"Waseda University, Wasedatsurumaki-cho 538-13, Shinjuku, Tokyo, 162-0041 Japan",35.7089926,139.7224245,https://www.halal-navi.com/restaurant/okuma-garden-house/93x1lw9dur47yqr6
Pariwar,"Arai-cho Uenoda 2883-1, Owariasahi, Aichi, 488-0073 Japan",35.2210005,137.0382349,https://www.halal-navi.com/restaurant/pariwar/x34kmjx3u31j51l9
Sultan Iidabashi,"Touzaikan bldg. 1F,2-9-7 Iidabashi, Chiyoda, Tokyo, 102-0072 Japan",35.7035661,139.7755546,https://www.halal-navi.com/restaurant/sultan-iidabashi/kpg81wr0un0wxyvd
MegaKebab,"Setagaya-ku, Tōkyō-to, 155-0031 Japan",35.6608411,139.6684778,https://www.halal-navi.com/restaurant/megakebab/qxy3wydugd1wnpkm
2 X 2 = 8 Indian And Pakistani Restaurant,"Setagaya-ku, Tōkyō-to, 155-0031 Japan",35.6614146,139.6664944,https://www.halal-navi.com/restaurant/2-x-2-8-indian-and-pakistani-restaurant/ekr47l5ug3kw3yo2
Punjabi Dhaba,"Kawasaki-shi, Kanagawa-ken, 211-0063 Japan",35.579097,139.659222,https://www.halal-navi.com/restaurant/punjabi-dhaba/pvkew8dulv3jn9gr
Aladdin,"Chiyoda-ku, Tōkyō-to, None Japan",35.6914758,139.774544,https://www.halal-navi.com/restaurant/aladdin/l8q472nu8zp7xm23
JAVAN RESTAURANT,"豊島区上池袋, ３５, Toshima-ku, Tōkyō-to, 170-0012 Japan",35.7351989,139.725188,https://www.halal-navi.com/restaurant/javan-restaurant/9voyj5eu3eejx64q
Indian Cafe Mumtaj,"新町2-2-1, Fuchū-shi, Tōkyō-to, 183-0052 Japan",35.7111959,139.5680852,https://www.halal-navi.com/restaurant/indian-cafe-mumtaj/84q9wz2u62xw26kz
Rands Co. (Raja Riaz Akhtar),"143 Furukōri, Ōra-gun, Gunma-ken, 370-0536 Japan",36.2629622,139.3945138,https://www.halal-navi.com/restaurant/rands-co-raja-riaz-akhtar/34kmjx3uk9kj51l9
Mother India,"Sendagi 3-45-9, Bunkyo, Tokyo, 113-0022 Japan",35.6839452,139.7419547,https://www.halal-navi.com/restaurant/mother-india/93x1lw9duox7yqr6
Maharani South Indian Restaurant,"3 Chome-15-29 Ōjima, Kōtō-ku, Tōkyō-to, 136-0072 Japan",35.6894212,139.8294474,https://www.halal-navi.com/restaurant/maharani-south-indian-restaurant/qx0kj6eun3z7le6o
Kebab Stop,"1 Chome-21-16 Ebisuhigashi, Ōsaka-shi, Ōsaka-fu, 556-0002 Japan",34.6533592,135.5056761,https://www.halal-navi.com/restaurant/kebab-stop/8m96wdmup4zwrodk
Spice Town,"Kuretakecho, 1−40−25, Tsuruga, Fukui, 914-0000 Japan",35.6479806,136.0591202,https://www.halal-navi.com/restaurant/spice-town/m9voyj5eu96jx64q
Peru GRILL,"Omotecho, Okayama-shi, Okayama-ken, 700-0822 Japan",34.662531,133.929956,https://www.halal-navi.com/restaurant/peru-grill/3x1lw9du6607yqr6
Sana Pakistan Restaurant,"4F, 3 Chome-10-1 Jotokita, Hirosaki-shi, Aomori-ken, 036-8091 Japan",40.6064561,140.4961836,https://www.halal-navi.com/restaurant/sana-pakistan-restaurant/ekr47l5umenw3yo2
Eat More Greens,"South 1F, Furenshia Azabu-Juban ,Azabujuban, 2 Chome-2-5, Minato, Tokyo, 106-0045 Japan",35.6551994,139.7357025,https://www.halal-navi.com/restaurant/eat-more-greens/5qxy3wydud2wnpkm
Sapna Kiyosu,"Haruhi, Nishimakimae−74, Kiyosu, Aichi, 492-8173 Japan",35.2306135,136.8378507,https://www.halal-navi.com/restaurant/sapna-kiyosu/kpg81wr0uyqwxyvd
Karma Curry & Cafe,"2-10-80, Nanbanaka, Naniwa , Ōsaka-shi, Ōsaka-fu, 556-0011 Japan",34.6611143,135.5017174,https://www.halal-navi.com/restaurant/karma-curry-cafe/6ro87q5u8pn7xdk5
Maharaja Biryani,"Kitazawa, 4-33-11, Setagaya-ku, Tokyo, 155-0031 Japan",35.668112,139.672839,https://www.halal-navi.com/restaurant/maharaja-biryani/lm5r7vxu91kw3p0e
IZUE,"2 Chome-12-22 Ueno, Taitō-ku, Tōkyō-to, 110-0005 Japan",35.7103327,139.7744828,https://www.halal-navi.com/restaurant/izue/49q3w05u952j2on6
La Mère Paulard,"Japan, 〒100-0005 Tōkyō-to, Chiyoda-ku, Tōkyō-to, 100-0005 Japan",35.6772692,139.7638503,https://www.halal-navi.com/restaurant/la-mère-paulard/pvkew8du651jn9gr
Ohitsuzen Tanbo (おひつ膳 田んぼ 表参道),"神宮前5-49-5, Shibuya-ku, Tōkyō-to, 150-0001 Japan",35.6633278,139.709525,https://www.halal-navi.com/restaurant/ohitsuzen-tanbo-おひつ膳-田んぼ-表参道/9650jkqum6rjke4q
DAIKANSOH,"Suō-Ōshima, Ōshima-gun, Yamaguchi-ken, 742-2106 Japan",33.9376547,132.1943036,https://www.halal-navi.com/restaurant/daikansoh/l8q472nuyln7xm23
Umeyama,"Miyajimacho, Hatsukaichi-shi, Hiroshima-ken, 739-0588 Japan",34.2707285,132.3003228,https://www.halal-navi.com/restaurant/umeyama/o8kv713u5g0w15mz
Butter Chicken,"４, １, Ebina-shi, Kanagawa-ken, 243-0435 Japan",35.4667471,139.38881,https://www.halal-navi.com/restaurant/butter-chicken/2dn1jmgupn3j9340
IVY PLACE,"16-15 Sarugakuchō, Shibuya-ku, Tōkyō-to, 150-0033 Japan",35.6493545,139.699935,https://www.halal-navi.com/restaurant/ivy-place/0ry1wemu4pejpmqk
Aisah Halal Restaurant,"Toyota-shi, Aichi-ken, 471-0071 Japan",35.101084,137.16601,https://www.halal-navi.com/restaurant/aisah-halal-restaurant/8m96wdmurd5wrodk
Halal Shokudo,"97, Fukiya, Iwaki-shi, Fukushima-ken, 972-8321 Japan",37.0081926,140.8474112,https://www.halal-navi.com/restaurant/halal-shokudo/qx0kj6eu3lg7le6o
HIMALAYA,"Okazaki-shi, Aichi-ken, 444-0845 Japan",34.9412247,137.1502246,https://www.halal-navi.com/restaurant/himalaya/np537nluxmejlor9
瀬々らぎの森 La Petite Porte,"小松市, カ, Komatsu-shi, Ishikawa-ken, 923-0183 Japan",36.3267154,136.4844341,https://www.halal-navi.com/restaurant/瀬々らぎの森-la-petite-porte/2dn1jmgupo3j9340
GOLD FALAFEL,"Ōsaka-shi, Ōsaka-fu, 546-0041 Japan",34.6378945,135.5330695,https://www.halal-navi.com/restaurant/gold-falafel/9650jkqum4rjke4q
Sultan Curry Fukushima,"83-1, Inarida, Fukushima-shi, Fukushima-ken, 960-8252 Japan",37.775327,140.4640287,https://www.halal-navi.com/restaurant/sultan-curry-fukushima/ekr47l5uedgw3yo2
Namaste Sakura,"Japan, 〒151-0071 Tōkyō-to, Shibuya-ku, Tōkyō-to, 151-0071 Japan",35.6801647,139.6767501,https://www.halal-navi.com/restaurant/namaste-sakura/34kmjx3uydyj51l9
Natura,"12, 11, Sendai-shi, Miyagi-ken, 981-1105 Japan",38.1967199,140.8762878,https://www.halal-navi.com/restaurant/natura/8m96wdmurodwrodk
Samosa,"Minato-ku, Tōkyō-to, 105-0003 Japan",35.6665495,139.7547163,https://www.halal-navi.com/restaurant/samosa/e6l9jgeu3ekw0qd4
Moti Shimbashi Store,"8, 6, Minato-ku, Tokyo, 105-0004 Japan",35.6680084,139.7574935,https://www.halal-navi.com/restaurant/moti-shimbashi-store/49q3w05u9rqj2on6
Cafeteria Renais,"2F Sakyo-Ku, Kyoto, Kyōto-fu, 606-8301 Japan",35.027235,135.7781672,https://www.halal-navi.com/restaurant/cafeteria-renais/49q3w05ul89j2on6
KO-SO CAFE,"Shibuya-ku, Tōkyō-to, 150-0011 Japan",35.648607,139.7097654,https://www.halal-navi.com/restaurant/ko-so-cafe/pg81wr0uo0qwxyvd
SHIKDER (大衆食堂シックダール江古田新江古田店),"2-3-12 Ehara-cho, Nakano-ku, Tokyo, 165-0023 Japan",35.7156768,139.6713484,https://www.halal-navi.com/restaurant/shikder-大衆食堂シックダール江古田新江古田店/ekr47l5uengw3yo2
Taishuu Shokudou Shikkuda-ru  (大衆食堂シックダール中野新井薬師前店),"3-40-7 Washima Building 2f, Nakano-ku, Tokyo, 164-0002 Japan",35.7156768,139.6713484,https://www.halal-navi.com/restaurant/taishuu-shokudou-shikkuda-ru-大衆食堂シックダール中野新井薬師前店/3rg5j3ruoppjqzlv
Mt Everest,"Kyōto-shi, Kyōto-fu, 600-8498 Japan",35.0210547,135.7424376,https://www.halal-navi.com/restaurant/mt-everest/np537nlux1ejlor9
Namaskar 4th Floor Bivi Sendai,"25, 1, Sendai-shi, Miyagi-ken, 983-0852 Japan",38.2609833,140.8834543,https://www.halal-navi.com/restaurant/namaskar-4th-floor-bivi-sendai/34kmjx3uy4yj51l9
Mareh,"Toshima-ku, Tōkyō-to, 170-0005 Japan",35.7293798,139.7268043,https://www.halal-navi.com/restaurant/mareh/3x1lw9dukz87yqr6
Sidra Egyptian Arabian restaurant,"2 Chome-2-2 Jinbeetōri, Nagoya-shi, Aichi-ken, 455-0822 Japan",35.1043945,136.8468282,https://www.halal-navi.com/restaurant/sidra-egyptian-arabian-restaurant/dqm0woxuy42w5y21
AARATI Indian Restaurant and Bar,"1, 1, Yokohama-shi, Kanagawa-ken, 232-0042 Japan",35.4296736,139.6170102,https://www.halal-navi.com/restaurant/aarati-indian-restaurant-and-bar/6ro87q5uo6q7xdk5
Inka kebab Turkish restaurant Yamato,"１６, ８, Yamato-shi, Kanagawa-ken, 242-0017 Japan",35.473028,139.462253,https://www.halal-navi.com/restaurant/inka-kebab-turkish-restaurant-yamato/9650jkqum2rjke4q
Lata,"Japan, 〒141-0022 Tōkyō-to, Shinagawa-ku, Tōkyō-to, 141-0022 Japan",35.6266793,139.7253676,https://www.halal-navi.com/restaurant/lata/8m96wdmur0dwrodk
Halal Chef Dining Cafe,"B1 Hotel Nikko Osaka, Ōsaka-shi, Ōsaka-fu, 542-0086 Japan",34.660736,135.495691,https://www.halal-navi.com/restaurant/halal-chef-dining-cafe/e6l9jgeu3n4w0qd4
maneri payan pakistani & indian restaurant,"1-8 Ikutamamaemachi, Ōsaka-shi, Ōsaka-fu, 543-0072 Japan",34.665537,135.516287,https://www.halal-navi.com/restaurant/maneri-payan-pakistani-indian-restaurant/9650jkquydxjke4q
Ramen Factory,"１８, ８１４, Kyōto-shi, Kyōto-fu, 605-0981 Japan",34.980226,135.7716561,https://www.halal-navi.com/restaurant/ramen-factory/8ly4j48ud5dw06xq
NAN TANDOORI,"青葉区子平町16-27, Sendai-shi, Miyagi-ken, 981-0944 Japan",38.2786577,140.849369,https://www.halal-navi.com/restaurant/nan-tandoori/2dn1jmgurz5j9340
Karin Restaurant,"3F, ANAインターコンチネンタルホテル東京, Minato-ku, Tōkyō-to, 107-0052 Japan",35.667736,139.740863,https://www.halal-navi.com/restaurant/karin-restaurant/5rygjpmu915jxz8m
Yoshino,"Chiba-shi, Chiba-ken, 261-0021 Japan",35.6448798,140.0405854,https://www.halal-navi.com/restaurant/yoshino/lm5r7vxued4w3p0e
Le Marrakech,"大阪市北区, １７, Ōsaka-shi, Ōsaka-fu, 531-0076 Japan",34.7065917,135.4877917,https://www.halal-navi.com/restaurant/le-marrakech/l8q472nu9d47xm23
Asian Restaurant Apakabar,"１６, ６, Ōsaka-shi, Ōsaka-fu, 531-0075 Japan",34.7032117,135.4884819,https://www.halal-navi.com/restaurant/asian-restaurant-apakabar/o8kv713um2yw15mz
指宿市営 唐船峡そうめん流し,"開聞十町5967, Ibusuki-shi, Kagoshima-ken, 891-0603 Japan",31.2201456,130.5424083,https://www.halal-navi.com/restaurant/指宿市営-唐船峡そうめん流し/3x1lw9du6947yqr6
kebab Sandos,"Japan, 〒150-0043 Tōkyō-to, Shibuya-ku, Tōkyō-to, 150-0043 Japan",35.6602717,139.6971457,https://www.halal-navi.com/restaurant/kebab-sandos/34kmjx3u9gpj51l9
ひつじの小屋,"６, １９, Tsuchiura-shi, Ibaraki-ken, 300-0011 Japan",36.121134,140.235975,https://www.halal-navi.com/restaurant/ひつじの小屋/dqm0woxu9vnw5y21
Yamadaya,"５２, １０, Hatsukaichi-shi, Hiroshima-ken, 739-0443 Japan",34.2827289,132.2669065,https://www.halal-navi.com/restaurant/yamadaya/lm5r7vxuex4w3p0e
JUC100,"１, １７, Kōbe-shi, Hyōgo-ken, 650-0004 Japan",34.6955348,135.1870353,https://www.halal-navi.com/restaurant/juc100/pvkew8dugkljn9gr
Sushizanmai (すしざんまい 本店),"築地4-11-9, Chūō-ku, Tōkyō-to, 104-0045 Japan",35.665916,139.7706201,https://www.halal-navi.com/restaurant/sushizanmai-すしざんまい-本店/ekr47l5uvklw3yo2
Aslan Kebab,"Unnamed Road, Taitō-ku, Tōkyō-to, 110-0005 Japan",35.7096806,139.7745641,https://www.halal-navi.com/restaurant/aslan-kebab/9650jkquy30jke4q
Kebab Shop,"Sumida-ku, Tōkyō-to, 130-0022 Japan",35.6945548,139.8136698,https://www.halal-navi.com/restaurant/kebab-shop/8ly4j48u6z0w06xq
Dilshad Restaurant,"1589-9 Yattajimamachi, Isesaki-shi, Gunma-ken, 372-0827 Japan",36.2682656,139.1916955,https://www.halal-navi.com/restaurant/dilshad-restaurant/6ro87q5uopg7xdk5
Kobe Mahal (神戸マハル ),"Shimogionchō, Kōbe-shi, Hyōgo-ken, 652-0015 Japan",34.6796074,135.1808472,https://www.halal-navi.com/restaurant/kobe-mahal-神戸マハル/e6l9jgeu6r2w0qd4
Rokkosan Snow Park,"日本, 灘区, Kōbe-shi, Hyōgo-ken, 657-0101 Japan",34.7679067,135.2426071,https://www.halal-navi.com/restaurant/rokkosan-snow-park/8m96wdmu4m6wrodk
Cascade Cafe,"港区, 12, Minato-ku, Tōkyō-to, 107-0052 Japan",35.66824,139.74072,https://www.halal-navi.com/restaurant/cascade-cafe/9voyj5eur01jx64q
Vikki,"2-1-35 Tendai, Chiba-shi, Chiba-ken, 263-0016 Japan",35.6331558,140.1123585,https://www.halal-navi.com/restaurant/vikki/3x1lw9dum3r7yqr6
RAJA,"20, 20, Ichinomiya-shi, Aichi-ken, 491-0831 Japan",35.2868173,136.8118149,https://www.halal-navi.com/restaurant/raja/9voyj5eurn4jx64q
Makimoukoropin (馬記 蒙古肉餅),"高田馬場2-14-7, Shinjuku-ku, Tōkyō-to, 169-0075 Japan",35.7128124,139.7063949,https://www.halal-navi.com/restaurant/makimoukoropin-馬記-蒙古肉餅/dqm0woxu9qnw5y21
タージマハル,"45, 3 Chome, Komaki-shi, Aichi-ken, 485-0029 Japan",35.2917047,136.9345905,https://www.halal-navi.com/restaurant/タージマハル/ekr47l5uvolw3yo2
Kebab Shop,"34 Hashimotochō, Nara-shi, Nara-ken, 630-8217 Japan",34.6819432,135.8288375,https://www.halal-navi.com/restaurant/kebab-shop/dqm0woxulyxw5y21
Ruby Jack,"５, ４, Minato-ku, Tōkyō-to, 106-0032 Japan",35.665859,139.73946,https://www.halal-navi.com/restaurant/ruby-jack/qxy3wydu0elwnpkm
Indian Restaurant Dehli,"14, 3, Misawa-shi, Aomori-ken, 033-0037 Japan",40.6745919,141.3664809,https://www.halal-navi.com/restaurant/indian-restaurant-dehli/ekr47l5uv5yw3yo2
Mezze,"1, 11, Ōsaka-shi, Ōsaka-fu, 550-0015 Japan",34.672271,135.496244,https://www.halal-navi.com/restaurant/mezze/lm5r7vxueg5w3p0e
Afsar Nagoya Halal Sweets,"3 Chome-185-4, Nagoya-shi, Aichi-ken, 455-0831 Japan",35.095609,136.855115,https://www.halal-navi.com/restaurant/afsar-nagoya-halal-sweets/dqm0woxu9r3w5y21
U-KHAN,"110 Meishicho, Nagoya-shi, Aichi-ken, 455-0053 Japan",35.099416,136.867816,https://www.halal-navi.com/restaurant/u-khan/6ro87q5u8e37xdk5
Tempura Tendon Tenya,"3 Chome Kita 5 Jōnishi, Sapporo-shi, Hokkaidō, 060-0005 Japan",43.067,141.3495333,https://www.halal-navi.com/restaurant/tempura-tendon-tenya/9voyj5eur24jx64q
sushiro,"1 Chome-7-1 Hachizuka, Ikeda-shi, Ōsaka-fu, 563-0024 Japan",34.8167342,135.4355649,https://www.halal-navi.com/restaurant/sushiro/o8kv713u56qw15mz
Asian kebab,"Taitō-ku, Tōkyō-to, 110-0005 Japan",35.7090267,139.7753016,https://www.halal-navi.com/restaurant/asian-kebab/pvkew8du6l4jn9gr
Taj2,"10, 5, Sendai-shi, Miyagi-ken, 980-0021 Japan",38.261417,140.8760979,https://www.halal-navi.com/restaurant/taj2/3rg5j3ruog5jqzlv
Asian Kebab,"Japan, Shinagawa-ku, Tōkyō-to, 142-0053 Japan",35.6177136,139.718159,https://www.halal-navi.com/restaurant/asian-kebab/0ry1wemu4omjpmqk
Tasty,"3-158-3 Edogawadaihigashi, Nagareyama-shi, Chiba-ken, 270-0111 Japan",35.8994306,139.9157889,https://www.halal-navi.com/restaurant/tasty/49q3w05u9pqj2on6
MAHHUB CURRY HOUSE,"Sakaidōdōhigashi, 6, Isesaki-shi, Gunma-ken, 370-0116 Japan",36.2778393,139.2564307,https://www.halal-navi.com/restaurant/mahhub-curry-house/qxy3wyduoq5wnpkm
うまいち,"Taitō-ku, Tōkyō-to, 111-0032 Japan",35.7185858,139.7958849,https://www.halal-navi.com/restaurant/うまいち/9voyj5eu5d6jx64q
インド料理 ハンディー  HANDI,"1508-1 Mefuki, Noda-shi, Chiba-ken, 278-0001 Japan",35.9649487,139.8824195,https://www.halal-navi.com/restaurant/インド料理-ハンディー-handi/49q3w05u9oqj2on6
大衆食堂シックダール中野新井薬師前店,"和島ビル, 3-40-7  2F, Nakano-ku, Tōkyō-to, 164-0002 Japan",35.7156768,139.6713484,https://www.halal-navi.com/restaurant/大衆食堂シックダール中野新井薬師前店/9650jkqum5mjke4q
Arin Turkish Restaurant & Bar,"Yokohama-shi, Kanagawa-ken, 223-0051 Japan",35.5495453,139.6459306,https://www.halal-navi.com/restaurant/arin-turkish-restaurant-bar/8m96wdmurgdwrodk
カバブハウス (Kabab House),"Fujisawa-shi, Miyabara, Fujisawa-shi, Kanagawa-ken, 252-0826 Japan",35.4020812,139.4113317,https://www.halal-navi.com/restaurant/カバブハウス-kabab-house/5rygjpmuyq1jxz8m
Makita Group Supa,"Iwata-shi, Shizuoka-ken, 438-0017 Japan",34.7218158,137.8692862,https://www.halal-navi.com/restaurant/makita-group-supa/84q9wz2ukm2w26kz
Kebab Valley,"1-1-10 Kashiwa, Kashiwa-shi, Chiba-ken, 277-0005 Japan",35.8611002,139.9706242,https://www.halal-navi.com/restaurant/kebab-valley/o8kv713u5yqw15mz
Kura Sushi,"Japan, Nagareyama-shi, Chiba-ken, 270-0112 Japan",35.7276091,139.7123081,https://www.halal-navi.com/restaurant/kura-sushi/8ly4j48u61xw06xq
Gapao,"6 Chome, Kita 8 Jonishi, Sapporo-shi, Hokkaidō, 060-0808 Japan",43.0709,141.3490649,https://www.halal-navi.com/restaurant/gapao/34kmjx3uyk0j51l9
YAZHINI SOUTH INDIAN RESTAURANT,"10 24, Itabashi-ku, Tōkyō-to, 173-0014 Japan",35.7489849,139.704773,https://www.halal-navi.com/restaurant/yazhini-south-indian-restaurant/5rygjpmuy41jxz8m
Ar Punjab Curry Restaurant,"Ueda-shi, Nagano-ken, 386-0012 Japan",36.4056075,138.257705,https://www.halal-navi.com/restaurant/ar-punjab-curry-restaurant/84q9wz2uk32w26kz
Mugal Mahal,"1F, 長久ビル, Nagasaki-shi, Nagasaki-ken, 850-0841 Japan",32.7434119,129.8753873,https://www.halal-navi.com/restaurant/mugal-mahal/84q9wz2uke5w26kz
Cafeteria Spice Jaya,"4-26-14 Matsugaya, 1F Floral Ueno Matsugaya, Taito-ku, Tokyo, 111-0036 Japan",35.71822,139.7886386,https://www.halal-navi.com/restaurant/cafeteria-spice-jaya/5rygjpmuyg9jxz8m
Chori Chori,"Furusawa, Toyama-shi, Toyama, 930-0151 Japan",36.6913077,137.1459529,https://www.halal-navi.com/restaurant/chori-chori/34kmjx3uyy8j51l9
Momo's Cafe & Restaurant,"12-15 Obasecho,  , Tennoji-ku Osaka-shi, Osaka, 543-0028 Japan",34.6662936,135.5249083,https://www.halal-navi.com/restaurant/momos-cafe-restaurant/pg81wr0uo2gwxyvd
Torkari,"Minato-ku, Tōkyō-to, 105-0003 Japan",35.6643173,139.7503047,https://www.halal-navi.com/restaurant/torkari/qx0kj6eul3x7le6o
NAMASTE (インド & ネパール料理 ナマステ),"駅前140-3, Fukuchiyama-shi, Kyōto-fu, 620-0000 Japan",35.2975963,135.1195336,https://www.halal-navi.com/restaurant/namaste-インド-ネパール料理-ナマステ/pg81wr0uorgwxyvd
MABRUR HALAL DINING,"574 Nakanocho, 2F MIKIHAN, Nakagyo-ku Kyoto-shi, Kyoto, 604-8042 Japan",35.0046485,135.7683279,https://www.halal-navi.com/restaurant/mabrur-halal-dining/34kmjx3uv32j51l9
Kolkata,"7, 2, Setagaya-ku, Tōkyō-to, 157-0073 Japan",35.6349229,139.6130618,https://www.halal-navi.com/restaurant/kolkata/2dn1jmgupr1j9340
Nagoya,"Tokoname, Aichi, 479-0881 Japan",34.8585531,136.8114851,https://www.halal-navi.com/restaurant/nagoya/o8kv713u8q1w15mz
NRE,"１丁目, ９, Chiyoda-ku, Tōkyō-to, 100-0005 Japan",35.6812743,139.7659167,https://www.halal-navi.com/restaurant/nre/pvkew8du6g3jn9gr
Hara Donuts,"Japan, 〒153-0064 Tōkyō-to, Meguro-ku, Tōkyō-to, 153-0064 Japan",35.6308812,139.7028747,https://www.halal-navi.com/restaurant/hara-donuts/5rygjpmuyrdjxz8m
Halal Food Plaza Nabi San,"Hakozaki 6-11-37, Fukuoka-shi, Fukuoka-ken, 812-0053 Japan",33.622496,130.4209609,https://www.halal-navi.com/restaurant/halal-food-plaza-nabi-san/0ry1wemu431jpmqk
MANIK,"Noborito 2662-2, Kawasaki-shi Tama-ku, Kanagawa-ken, 214-0014 Japan",35.6199989,139.5649208,https://www.halal-navi.com/restaurant/manik/l8q472nuy9k7xm23
Reyhan's Uyghur Restaurant,"4 Chome-2-33 Komagome, Toshima-ku, Tōkyō-to, 170-0003 Japan",35.7351586,139.7431477,https://www.halal-navi.com/restaurant/reyhans-uyghur-restaurant/ekr47l5uevkw3yo2
KENNY Asia,"Shinsaibashisuji 2-7-11, Ōsaka-shi, Ōsaka-fu, 542-8501 Japan",34.6682979,135.5040604,https://www.halal-navi.com/restaurant/kenny-asia/dqm0woxuy90w5y21
Sizzler,"2-2-1, Yokohama, Kanagawa, 220-0012 Japan",35.454811,139.6315015,https://www.halal-navi.com/restaurant/sizzler/2dn1jmgur8vj9340
Cafe De La Diosa,"3, 2, Maebashi-shi, Gunma-ken, 371-0046 Japan",36.428078,139.0432847,https://www.halal-navi.com/restaurant/cafe-de-la-diosa/6ro87q5u8537xdk5
Nazar Kebab,"新富町1-19, Kawagoe-shi, Saitama-ken, 350-0043 Japan",35.9142907,139.4829758,https://www.halal-navi.com/restaurant/nazar-kebab/9650jkquy00jke4q
McDonald's (マクドナルド 4号線福島入江町店),"入江町15-1, Fukushima-shi, Fukushima-ken, 960-8117 Japan",37.7690414,140.4815327,https://www.halal-navi.com/restaurant/mcdonalds-マクドナルド-4号線福島入江町店/9650jkquypvjke4q
Sukiya 147 Omachi Branch (すき家 147号大町店),"975 Omacho Omachi, Omachi, Nagano, 398-0002 Japan",36.493372,137.8605742,https://www.halal-navi.com/restaurant/sukiya-147-omachi-branch-すき家-147号大町店/34kmjx3u9p1j51l9
Zuiho (瑞鳳),"5, 5, Ube, Yamaguchi-ken, 755-0025 Japan",33.9493138,131.2775635,https://www.halal-navi.com/restaurant/zuiho-瑞鳳/5rygjpmu9dejxz8m
Hamid's Kebab,"1016-75 Karuizawa,, Kitasaku-gun, Nagano-ken, 389-0102 Japan",36.3483927,138.5970297,https://www.halal-navi.com/restaurant/hamids-kebab/8ly4j48u182w06xq
MUMTAJ,"Musashino-shi, 1, Musashino-shi, Tōkyō-to, 180-0001 Japan",35.7111959,139.5680852,https://www.halal-navi.com/restaurant/mumtaj/3rg5j3ru50ljqzlv
Komeda Coffee,"Nakagawachuo, Yokohama-shi, Kanagawa-ken, 224-0003 Japan",35.553576,139.5781073,https://www.halal-navi.com/restaurant/komeda-coffee/34kmjx3u90pj51l9
Amar Restaurant,"2061-3 Kuramitsu , Arao-shi, Kumamoto-ken, 864-0027 Japan",32.9625597,130.4618086,https://www.halal-navi.com/restaurant/amar-restaurant/2dn1jmgur9vj9340
Kua Aina,"3 Chome-1-1 Higashiikebukuro, Toshima-ku, Tōkyō-to, 170-0013 Japan",35.7294861,139.7176019,https://www.halal-navi.com/restaurant/kua-aina/pg81wr0ur8rwxyvd
Au Bec Fin,"Kōbe-shi, Hyōgo-ken, 657-0845 Japan",34.7030287,135.2180621,https://www.halal-navi.com/restaurant/au-bec-fin/lm5r7vxuyq8w3p0e
Tenya (天丼てんや 川越店),"脇田町7-1, Kawagoe-shi, Saitama-ken, 350-1122 Japan",35.9097778,139.4825556,https://www.halal-navi.com/restaurant/tenya-天丼てんや-川越店/ekr47l5uvzlw3yo2
Indian Dhaba Noorani Gion,"272-5 Matsubaracho, Kyōto-shi, Kyōto-fu, 605-0063 Japan",35.005689,135.7778996,https://www.halal-navi.com/restaurant/indian-dhaba-noorani-gion/84q9wz2ue9qw26kz
Ramen Kagemusha (らーめん影武者),"外神田3-4-1, Chiyoda-ku, Tōkyō-to, 101-0021 Japan",35.7013342,139.7694634,https://www.halal-navi.com/restaurant/ramen-kagemusha-らーめん影武者/l8q472nu9mv7xm23
Kizuna Sushi,"Japan, Shinjuku-ku, Tōkyō-to, 160-0023 Japan",35.689914,139.696861,https://www.halal-navi.com/restaurant/kizuna-sushi/5rygjpmu96ejxz8m
Royal Nan House,"6 Chome-18 Hanasatomachi, Takayama-shi, Gifu-ken, 506-0026 Japan",36.1426945,137.2526425,https://www.halal-navi.com/restaurant/royal-nan-house/9650jkqumvkjke4q
Ibaraki University Co-op,"3 Chome-4-12 Higashinarusawachō, Hitachi-shi, Ibaraki-ken, 316-0034 Japan",36.2869435,140.4245362,https://www.halal-navi.com/restaurant/ibaraki-university-co-op/9voyj5eu5oyjx64q
asian kebab,"5 Chome-30-3 Shiba, Minato-ku, Tōkyō-to, 105-0014 Japan",35.646808,139.7453967,https://www.halal-navi.com/restaurant/asian-kebab/ekr47l5ue1xw3yo2
Taj Mahal,"Japan, 〒105-0014 Tōkyō-to, Minato-ku, Tōkyō-to, 105-0014 Japan",35.6517067,139.745253,https://www.halal-navi.com/restaurant/taj-mahal/qxy3wyduop2wnpkm
Tanuki Sushi,"2 Chome-9-15 Shibadaimon, Minato-ku, Tōkyō-to, 105-0012 Japan",35.6541953,139.7527564,https://www.halal-navi.com/restaurant/tanuki-sushi/pg81wr0uog1wxyvd
Caff'e Ponte ITALIANO,"Otemachi, Hiroshima-shi, Hiroshima-ken, 730-0051 Japan",34.3940113,132.4542722,https://www.halal-navi.com/restaurant/caffe-ponte-italiano/6ro87q5uoqq7xdk5
umikaze ramen restaurant,"2998-2 Ichinomiya, Chōsei-gun, Chiba-ken, 299-4301 Japan",35.3753754,140.3621101,https://www.halal-navi.com/restaurant/umikaze-ramen-restaurant/34kmjx3uy1zj51l9
Tosenkyo Somen Nagashi,"5967 Kaimonju-cho, Ibusuki-shi, Kagoshima-ken, 891-0603 Japan",31.1961313,130.5279745,https://www.halal-navi.com/restaurant/tosenkyo-somen-nagashi/l8q472nuypv7xm23
Reichan (麗ちゃん),"南区松原町2-37, Hiroshima-shi, Hiroshima-ken, 732-0822 Japan",34.3975821,132.4766123,https://www.halal-navi.com/restaurant/reichan-麗ちゃん/8ly4j48u6new06xq
L'INSIEME,"1-31-7 Kameido, Kōtō-ku, Tōkyō-to, 136-0071 Japan",35.7000862,139.8267376,https://www.halal-navi.com/restaurant/linsieme/e6l9jgeu3dkw0qd4
Tajin-ya,"Japan, 〒107-0062 Tōkyō-to, Chiyoda-ku, Tōkyō-to, 102-0071 Japan",35.7002653,139.7458733,https://www.halal-navi.com/restaurant/tajin-ya/qx0kj6eulr67le6o
Jumbo Doner Kebab,"Taitō-ku, Tōkyō-to, 110-0005 Japan",35.7099395,139.7745087,https://www.halal-navi.com/restaurant/jumbo-doner-kebab/lm5r7vxup09w3p0e
cankaya,"Nishishinjuku, 1 Chome−15−7, Shinjuku, Tokyo, 160-0023 Japan",35.688741,139.697175,https://www.halal-navi.com/restaurant/cankaya/dlm5r7vxuvqw3p0e
Hati,"Setagaya Miyasaka 3-23-1, Setagaya, Tokyo, 156-0052 Japan",35.6532286,139.635184,https://www.halal-navi.com/restaurant/hati/8qx0kj6eu367le6o
Amigo Thai Kitchen,"7 Chome-63-7 Nishikamata, Ōta-ku, Tōkyō-to, 144-0051 Japan",35.561885,139.712881,https://www.halal-navi.com/restaurant/amigo-thai-kitchen/pvkew8dugg5jn9gr
Ohisamaya,"4 Chome-8-17 Chūō, Aoba-ku,, Sendai, Miyagi, 980-0021 Japan",38.2564659,140.8798567,https://www.halal-navi.com/restaurant/ohisamaya/93x1lw9duvg7yqr6
Mrs Khan Halal Japan,"2 Chome-5-3 Miyamotochou, Tokorozawa-shi, Saitama-ken, 359-1143 Japan",35.7961172,139.4629666,https://www.halal-navi.com/restaurant/mrs-khan-halal-japan/6ro87q5urd67xdk5
Imagine Organic Cafe,"84-7 Shimogaito, Ikoma-gun, Nara-ken, 636-0933 Japan",34.6262721,135.7041463,https://www.halal-navi.com/restaurant/imagine-organic-cafe/l8q472nuk4m7xm23
Shah Jee Ibaraki,"Iwai, 2812, Bando, Ibaraki, 306-0631 Japan",36.0523682,139.884605,https://www.halal-navi.com/restaurant/shah-jee-ibaraki/dlm5r7vxurrw3p0e
Cous Cous,"Higashinippori, 5 Chome−51−12, 日暮里安永ビル, Arakawa-ku, Tōkyō-to, 116-0014 Japan",35.7282607,139.7723398,https://www.halal-navi.com/restaurant/cous-cous/e6l9jgeurerw0qd4
Red Lobster,"Minato-ku, 東京都, 135-0091 Japan",35.62779,139.7734643,https://www.halal-navi.com/restaurant/red-lobster/0ry1wemumv0jpmqk
Mughal Tamatsukuri,"2-36 Tamatsukuri Tennoji Osaka, Ōsaka-shi, Ōsaka-fu, 543-0014 Japan",34.673469,135.532835,https://www.halal-navi.com/restaurant/mughal-tamatsukuri/49q3w05upgej2on6
halala food,"３, １６５５, Fussa-shi, Tōkyō-to, 197-0003 Japan",35.7229651,139.3436905,https://www.halal-navi.com/restaurant/halala-food/e6l9jgeurqvw0qd4
Muqam,"2-2-8 Dotonbori, Chuo, Osaka, 542-0077 Japan",34.6681774,135.4998695,https://www.halal-navi.com/restaurant/muqam/dlm5r7vxun4w3p0e
Bosphorus Hasan Shinjuku 2 chome,"2-7-2 Shinjuku, sunny corpo 103, Shinjuku-ku, Tokyo, 160-0022 Japan",35.689462,139.7082764,https://www.halal-navi.com/restaurant/bosphorus-hasan-shinjuku-2-chome/6np537nlummjlor9
Veg Kitchen,"Taito 3-44-8, Taito, Tokyo, 101-0021 Japan",35.7055648,139.7778333,https://www.halal-navi.com/restaurant/veg-kitchen/y6ro87q5uoq7xdk5
Strawberry Field (ストロベリーフィールド),"2-1-12 Daigakuminami, Nishi-ku, Niigata-shi, Niigata-ken, 950-2111 Japan",37.8658809,138.9449216,https://www.halal-navi.com/restaurant/strawberry-field-ストロベリーフィールド/5rygjpmuq1rjxz8m
Sadaf Restaurant,"602-32 Yoshimi, Sakura-shi, Sakura-shi, Chiba-ken, 285-0834 Japan",35.7081527,140.1867388,https://www.halal-navi.com/restaurant/sadaf-restaurant/8m96wdmugnqwrodk
Hanamasa,"5 Chome-15-1 Kameido, Kōtō-ku, Tōkyō-to, 136-0071 Japan",35.6996879,139.825689,https://www.halal-navi.com/restaurant/hanamasa/l8q472nukxl7xm23
Mayur,"Techno Building 1F 2-16-6 Tachikawa Akebonocho , Tachikawa-shi, Tōkyō-to, 190-0012 Japan",35.699826,139.41629,https://www.halal-navi.com/restaurant/mayur/8m96wdmu4v3wrodk
Syun Raku Zen,"Meitou-ku Wakabadai 1402, Nagoya, Aichi, 465-0015 Japan",35.1794707,136.994176,https://www.halal-navi.com/restaurant/syun-raku-zen/d84q9wz2unnw26kz
信州そば処 そじ坊,"Kōtō-ku, Tōkyō-to, 135-0064 Japan",35.6249488,139.7749775,https://www.halal-navi.com/restaurant/信州そば処-そじ坊/8ly4j48u1g8w06xq
"まいばすけっと""My Basket"" Daiba 1-chome shop","Minato-ku, Tōkyō-to, 135-0091 Japan",35.6342531,139.7764655,https://www.halal-navi.com/restaurant/まいばすけっと-my-basket-daiba-1-chome-shop/6ro87q5urv67xdk5
Mantra Halal Restaurant,"3-10 Ueno 4-9-6 Ueno, Taitō-ku, Tōkyō-to, 110-0005 Japan",35.7101387,139.7743605,https://www.halal-navi.com/restaurant/mantra-halal-restaurant/o8kv713uyk3w15mz
Curry And Naan,"5 Chome-3 Kiba, Kōtō-ku, Tōkyō-to, 135-0042 Japan",35.669247,139.806406,https://www.halal-navi.com/restaurant/curry-and-naan/9650jkquzxzjke4q
Raj Palace,"4, 1723, Shizuoka-shi, Shizuoka-ken, 422-8005 Japan",34.981835,138.430641,https://www.halal-navi.com/restaurant/raj-palace/ekr47l5um5vw3yo2
tohoku stara,"Shima-218-2 Yachi, Nishimurayama-gun, Yamagata-ken, 999-3511 Japan",38.423478,140.2953221,https://www.halal-navi.com/restaurant/tohoku-stara/8m96wdmupmvwrodk
IN kitchen,"Hitachi-shi, Ibaraki-ken, 317-0073 Japan",36.5902661,140.6606468,https://www.halal-navi.com/restaurant/in-kitchen/9650jkqu584jke4q
Sindbad restaurant yatajema,"Isesaki-shi, Gunma-ken, 372-0827 Japan",36.2682656,139.1916955,https://www.halal-navi.com/restaurant/sindbad-restaurant-yatajema/5rygjpmuqomjxz8m
Asian Garden,"Nikkō-shi, Tochigi-ken, 321-1406 Japan",36.7473875,139.6194904,https://www.halal-navi.com/restaurant/asian-garden/84q9wz2umxew26kz
Kinsui,"Hotel Chinzanso Tokyo, 2-10-8, Sekiguchi, Bunkyo, Tokyo, 112-8680 Japan",35.7117701,139.7251681,https://www.halal-navi.com/restaurant/kinsui/95rygjpmu5djxz8m
Taj Mahal,"6, 8, Tokorozawa-shi, Saitama-ken, 359-1123 Japan",35.7889204,139.4712407,https://www.halal-navi.com/restaurant/taj-mahal/lm5r7vxu9ddw3p0e
Turkish Rokanta Kelebeki,"558-2 Onaga Nishihara-Cho, Nakagami-gun, Okinawa-ken, 903-0117 Japan",26.234577,127.7516704,https://www.halal-navi.com/restaurant/turkish-rokanta-kelebeki/3x1lw9dumq37yqr6
Halal Food,"Kōjinmachi, 4−14, 井藤ビル, Hiroshima-shi, Hiroshima-ken, 732-0807 Japan",34.3966244,132.472987,https://www.halal-navi.com/restaurant/halal-food/pg81wr0ukd5wxyvd
Mira 花畑,"Tsukuba-shi, Ibaraki-ken, 300-3257 Japan",36.1346611,140.08285,https://www.halal-navi.com/restaurant/mira-花畑/pvkew8duxkqjn9gr
MamaAiko Bakery,"6, 6, Meguro-ku, Tōkyō-to, 153-0063 Japan",35.6439935,139.6984919,https://www.halal-navi.com/restaurant/mamaaiko-bakery/9voyj5eu39ejx64q
マクドナルド 小牧インター店,"大字村中字下之坪505-1, Komaki-shi, Aichi-ken, 485-0082 Japan",35.2995891,136.9082117,https://www.halal-navi.com/restaurant/マクドナルド-小牧インター店/84q9wz2u3ryw26kz
Truva トゥルヴァ,"鶴屋町2-24-1, Yokohama-shi, Kanagawa-ken, 221-0835 Japan",35.46881,139.620782,https://www.halal-navi.com/restaurant/truva-トゥルヴァ/e6l9jgeulyzw0qd4
Kaijin Ramen Nakano,"中野5-54-4, Nakano-ku, Tōkyō-to, 164-0001 Japan",35.7091118,139.6656805,https://www.halal-navi.com/restaurant/kaijin-ramen-nakano/84q9wz2u3orw26kz
Mezopotamia,"Kyōto-shi, Kyōto-fu, 604-8046 Japan",35.0059186,135.7669506,https://www.halal-navi.com/restaurant/mezopotamia/e6l9jgeurkgw0qd4
Momoku Mura No Jidari,"Japan, Ōta-ku, Tōkyō-to, 144-0052 Japan",35.5644262,139.7169079,https://www.halal-navi.com/restaurant/momoku-mura-no-jidari/lm5r7vxu9ovw3p0e
Sapna Inazawa,"Nagano, 5−106−1, Inazawa, Aichi, 492-8142 Japan",35.257388,136.81472,https://www.halal-navi.com/restaurant/sapna-inazawa/d84q9wz2ur2w26kz
Yuujin,"4-7-10 Gyoutoku Eki-mae, Ichikawa, Chiba, 272-0133 Japan",35.678725,139.915338,https://www.halal-navi.com/restaurant/yuujin/d84q9wz2u5qw26kz
ハラル食堂,"Fukiya-97 Jōbanyumotomachi, Iwaki-shi, Fukushima-ken, 972-8321 Japan",37.0081926,140.8474112,https://www.halal-navi.com/restaurant/ハラル食堂/qxy3wydunoqwnpkm
Shaghun,"1-18-12 Mizonokuchi Takatsu-ku, Kawasaki, Kanagawa, 213-0001 Japan",35.6009064,139.6140035,https://www.halal-navi.com/restaurant/shaghun/d84q9wz2upqw26kz
Sapna Hikone,"Terasubiru 1F 438 Nagasoneminamicho, Hikone, Shiga, 522-0052 Japan",35.2631766,136.2432494,https://www.halal-navi.com/restaurant/sapna-hikone/dlm5r7vxuxrw3p0e
Sapna Ozone," Kita-ku, Ozone 4−20−29, Nagoya, Aichi, 462-0825 Japan",35.1929975,136.933316,https://www.halal-navi.com/restaurant/sapna-ozone/ke6l9jgeuk4w0qd4
Hokkaidou,"Japan, 〒220-0004 Kanagawa-ken, Yokohama-shi, Kanagawa-ken, 220-0004 Japan",43.2203266,142.8634737,https://www.halal-navi.com/restaurant/hokkaidou/pg81wr0u4q3wxyvd
Bismillah Restorant,"１, 5, Hiratsuka-shi, Kanagawa-ken, 254-0036 Japan",35.3371784,139.3519898,https://www.halal-navi.com/restaurant/bismillah-restorant/84q9wz2u3vyw26kz
Ceyhan Turkish Restaurant,"Japan, 〒231-0868 Kanagawa-ken, Yokohama-shi, Kanagawa-ken, 231-0868 Japan",35.4377899,139.642766,https://www.halal-navi.com/restaurant/ceyhan-turkish-restaurant/0ry1wemumz2jpmqk
Aanz Cafe,"4-1-24, Ōsaka-shi, Ōsaka-fu, 555-0032 Japan",34.7067351,135.4472486,https://www.halal-navi.com/restaurant/aanz-cafe/qxy3wydu0k6wnpkm
Indian Mantra,"Sky Building, 2 Chome-１９-１２ Takashima, Yokohama-shi, Kanagawa-ken, 220-0011 Japan",35.464471,139.624817,https://www.halal-navi.com/restaurant/indian-mantra/np537nlunz0jlor9
Tempura Tendon Tenya,"1-25-1 Nishishinjuku, Shinjuku, Tokyo, 160-0022 Japan",35.6916399,139.6951117,https://www.halal-navi.com/restaurant/tempura-tendon-tenya/3rg5j3rud90jqzlv
TGI Fridat's Yokohama,"Japan, 〒220-0004 Kanagawa-ken, Yokohama-shi, Kanagawa-ken, 220-0004 Japan",35.4674133,139.6211928,https://www.halal-navi.com/restaurant/tgi-fridats-yokohama/e6l9jgeur2gw0qd4
Pyramids,"6-8-1, Nakatsu, Kita-ku, Osaka, Osaka, 531-0071 Japan",34.7088253,135.4892196,https://www.halal-navi.com/restaurant/pyramids/dlm5r7vxul0w3p0e
Asian Kitchen Salman,"Sakyo-ku, Tanakamonzen cho 91, Kyoto, Kyoto, 606-8501 Japan",35.0287876,135.7807643,https://www.halal-navi.com/restaurant/asian-kitchen-salman/ldqm0woxuk3w5y21
TGI Friday's MM21,"Japan, 〒231-0062 Kanagawa-ken, 横浜市, 神奈川県, 231-0062 Japan",35.4506654,139.6326126,https://www.halal-navi.com/restaurant/tgi-fridays-mm21/3x1lw9duo357yqr6
Hokkaidou Tenri Bldg,"Japan, 〒220-0004 Kanagawa-ken, Yokohama-shi, Kanagawa-ken, 220-0004 Japan",43.2203266,142.8634737,https://www.halal-navi.com/restaurant/hokkaidou-tenri-bldg/qx0kj6eunmr7le6o
Amatarou Yokohama Kitasaiwai,"Japan, Yokohama-shi, Kanagawa-ken, 220-0004 Japan",35.4657858,139.6223132,https://www.halal-navi.com/restaurant/amatarou-yokohama-kitasaiwai/84q9wz2u310w26kz
Hokkaidou Kannai,"〒231-0013 Kanagawa-ken, Yokohama-shi, Yokohama-shi, Kanagawa-ken, 231-0013 Japan",35.44652,139.636718,https://www.halal-navi.com/restaurant/hokkaidou-kannai/49q3w05up8lj2on6
Waindou," Kasai Station Building 5F, Nakakasai 3-35-16, Edogawa, Tokyo, 134-0083 Japan",35.6637474,139.8722603,https://www.halal-navi.com/restaurant/waindou/l49q3w05upyj2on6
Acai Cafe,"CAS Building 1F, 5 Chome−3−9, Shibuya, Tokyo, 150-0012 Japan",35.6507617,139.7215965,https://www.halal-navi.com/restaurant/acai-cafe/6pvkew8du3mjn9gr
Olympia,"Japan, Yokohama-shi, Kanagawa-ken, 231-0011 Japan",35.446782,139.638827,https://www.halal-navi.com/restaurant/olympia/2dn1jmguv8gj9340
Nimta Asian Dining,"３, １, Niiza-shi, Saitama-ken, 352-0002 Japan",35.8439197,139.6275982,https://www.halal-navi.com/restaurant/nimta-asian-dining/8m96wdmu4lpwrodk
Royal Garden Cafe Tama Plaza,"Japan, 〒225-0003 Kanagawa-ken, Yokohama-shi, Kanagawa-ken, 225-0003 Japan",35.5756332,139.5565759,https://www.halal-navi.com/restaurant/royal-garden-cafe-tama-plaza/dqm0woxul8vw5y21
Ryoutei Tamachi,"1-6-19 Tamachi, Okayama-shi, Okayama-ken, 700-0825 Japan",34.6687061,133.9157674,https://www.halal-navi.com/restaurant/ryoutei-tamachi/0ry1wemu3orjpmqk
Indian Restaurant Sitar,"Japan, 〒231-0023 Kanagawa-ken, Yokohama-shi, Kanagawa-ken, 231-0023 Japan",35.4448599,139.6451143,https://www.halal-navi.com/restaurant/indian-restaurant-sitar/pvkew8duxn6jn9gr
Motomachi Shinshinshanin,"Japan, 〒231-0861 Kanagawa-ken, Yokohama-shi, Kanagawa-ken, 231-0861 Japan",35.439372,139.647939,https://www.halal-navi.com/restaurant/motomachi-shinshinshanin/6ro87q5ur5n7xdk5
Sairam Okurayama,"Japan, 〒222-0037 Kanagawa-ken, Yokohama-shi, Kanagawa-ken, 222-0037 Japan",35.5211559,139.6297027,https://www.halal-navi.com/restaurant/sairam-okurayama/3rg5j3rug08jqzlv
Thali-ya Higashi-Gotanda,"1-25-17 Higashigotanda, Shinagawa, Tokyo, 141-0022 Japan",35.6256685,139.7278259,https://www.halal-navi.com/restaurant/thali-ya-higashi-gotanda/ke6l9jgeu25w0qd4
Tandoori Kurume,"Torihigashimachi 7-18, Kurume, Fukuoka, 830-0016 Japan",33.3146691,130.5219344,https://www.halal-navi.com/restaurant/tandoori-kurume/d84q9wz2u4zw26kz
My Outlets Global Halal Hub Cafe,"2-6-2 Matsunami, Chuo, Chiba-shi, Chiba-ken, 260-0044 Japan",35.6224641,140.104085,https://www.halal-navi.com/restaurant/my-outlets-global-halal-hub-cafe/qx0kj6eu39l7le6o
Batachiki,"2-16-5 Tonyamachi, Maebashi-shi, Gunma-ken, 371-0855 Japan",36.399702,139.0384133,https://www.halal-navi.com/restaurant/batachiki/e6l9jgeu69yw0qd4
Cafe Restaurant Roti,"Sawara Ward, Jiromaru, 1−16−10, Fukuoka, Fukuoka, 814-0165 Japan",33.5517425,130.3332664,https://www.halal-navi.com/restaurant/cafe-restaurant-roti/lekr47l5ukpw3yo2
Tokyo University Cafeteria Komaba Campus,"3-8-1 Komaba, Meguro, Tokyo, 153-8902 Japan",35.659854,139.68465,https://www.halal-navi.com/restaurant/tokyo-university-cafeteria-komaba-campus/dlm5r7vxu98w3p0e
Pasela Resorts Karaoke Ikebukuro honten,"Nishiikebukuro 1-21-9, Toshima-ku, Tokyo, 171-0021 Japan",35.6955223,139.7015332,https://www.halal-navi.com/restaurant/pasela-resorts-karaoke-ikebukuro-honten/6ro87q5upzx7xdk5
Kissa Saeki,"1 Chome-4-25 Kamiyacho, Naka Ward, Naka-ku, Hiroshima, 730-0031 Japan",34.394341,132.458584,https://www.halal-navi.com/restaurant/kissa-saeki/9voyj5euqd0jx64q
Durga,"3 -2-28 Koei Minato Ward, Nagoya, Aichi, 455-0015 Japan",35.102029,136.8833543,https://www.halal-navi.com/restaurant/durga/v8m96wdmuy6wrodk
Durga No.2,"Twin-bulding 2F, 2-3-2 Irifune, Minato-ku, Nagoya, Aichi, 455-0032 Japan",35.092816,136.881588,https://www.halal-navi.com/restaurant/durga-no-2/93x1lw9dup47yqr6
Gandhaara  No.2,"SuntopiaHioki 1F, 2-14-5 NishiHioki, Nakagawa-ku, Nagoya, Aichi, 453-0021 Japan",35.1766433,136.8708341,https://www.halal-navi.com/restaurant/gandhaara-no-2/o2dn1jmgud5j9340
Bengal Kitchen,"White Horizon Bldg. 1F, 4-12 Koyamachi, Shizuoka, Shizuoka, 420-0852 Japan",34.9728248,138.384522,https://www.halal-navi.com/restaurant/bengal-kitchen/5qxy3wydur5wnpkm
Rusutsu Resort Restaurants,"13 Izumikawa, Rusutsu-mura, Abuta-gun, Hokkaidō, 048-1711 Japan",42.7476601,140.9051442,https://www.halal-navi.com/restaurant/rusutsu-resort-restaurants/qx0kj6eukzq7le6o
Mumbai,"Minato-ku, 東京都, 135-0091 Japan",35.6276483,139.7729332,https://www.halal-navi.com/restaurant/mumbai/0ry1wemu3q2jpmqk
Ini Saja,"Higashifukai 409-5 Residence Arts 1F, Nagareyama, Chiba, 270-0101 Japan",35.9154374,139.9060806,https://www.halal-navi.com/restaurant/ini-saja/8qx0kj6eune7le6o
インドカレー&ナン　プルニマPURNIMA,"Ebina-shi, Kanagawa-ken, 243-0432 Japan",35.4510111,139.3908187,https://www.halal-navi.com/restaurant/インドカレー-ナン-プルニマpurnima/8ly4j48udzgw06xq
TOPOLI(トポリ),"妻田北1-8-19, Atsugi-shi, Kanagawa-ken, 243-0815 Japan",35.4616369,139.3576368,https://www.halal-navi.com/restaurant/topoli-トポリ/9voyj5eurgvjx64q
Umemori Halal Deli,"221 Hokkejichō, Nara-shi, Nara-ken, 630-8001 Japan",34.945697,135.7502212,https://www.halal-navi.com/restaurant/umemori-halal-deli/pvkew8dux3njn9gr
Test Of India,"Toshima-ku, Tōkyō-to, 170-0003 Japan",35.7379419,139.746522,https://www.halal-navi.com/restaurant/test-of-india/9650jkquylnjke4q
A-Price,"Chuo-cho 3-7, Beppu, Oita, 874-0936 Japan",33.2765922,131.5007791,https://www.halal-navi.com/restaurant/a-price/93x1lw9dulm7yqr6
